시설종류,대상시설명,소재지도로명주소,소재지지번주소,위도,경도,관리기관명,관할경찰서명,CCTV설치여부,CCTV설치대수,보호구역도로폭,데이터기준일자,제공기관코드,제공기관명,시도명
유치원,동산자연유치원,전라북도 익산시 현영길 40-11,전북 익산시 현영동 214-1,35.9646312659,126.9373153743,전라북도 익산시청,익산경찰서,Y,,,2021-03-17,4680000,전라북도 익산시,전라북도
초등학교,왕궁초등학교,전라북도 익산시 왕궁면 견우길 3,전북 익산시 왕궁면 흥암리 150,35.96632633,127.0898827,전라북도 익산시청,전라북도 익산경찰서,Y,,,2020-10-22,6450000,전라북도,전라북도
유치원,왕궁초등학교병설유치원,전라북도 익산시 왕궁면 견우길 3,전북 익산시 왕궁면 흥암리 150,35.96632633,127.0898827,전라북도 익산시청,전라북도 익산경찰서,Y,,,2020-10-22,6450000,전라북도,전라북도
초등학교,왕궁남초등학교,전라북도 익산시 왕궁면 학호길 12,전북 익산시 왕궁면 온수리 202-4,35.9270823829,127.0755188349,전라북도 익산시청,전라북도 익산경찰서,Y,,,2020-10-22,6450000,전라북도,전라북도
유치원,왕궁남초등학교병설유치원,전라북도 익산시 왕궁면 학호길 12,전북 익산시 왕궁면 온수리 202-4,35.9270823829,127.0755188349,전라북도 익산시청,전라북도 익산경찰서,Y,,,2020-10-22,6450000,전라북도,전라북도
초등학교,오산초등학교,전라북도 익산시 오산면 오산로 38,전북 익산시 오산면 오산리 25-1,35.94190656,126.9158496255,전라북도 익산시청,전라북도 익산경찰서,Y,,,2020-10-22,6450000,전라북도,전라북도
유치원,오산초등학교병설유치원,전라북도 익산시 오산면 오산로 38,전북 익산시 오산면 오산리 25-1,35.94190656,126.9158496255,전라북도 익산시청,전라북도 익산경찰서,Y,,,2020-10-22,6450000,전라북도,전라북도
초등학교,이리초등학교,전라북도 익산시 중앙로15길 20,전북 익산시 마동 260-2,35.9386634,126.9594164,전라북도 익산시청,전라북도 익산경찰서,Y,,,2020-10-22,6450000,전라북도,전라북도
유치원,이리초등학교병설유치원,전라북도 익산시 중앙로15길 20,전북 익산시 마동 260-2,35.9386634,126.9594164,전라북도 익산시청,전라북도 익산경찰서,Y,,,2020-10-22,6450000,전라북도,전라북도
초등학교,이리동남초등학교,전라북도 익산시 동천로7길 18,전북 익산시 동산동 140-1,35.93131975,126.9707098,전라북도 익산시청,전라북도 익산경찰서,Y,,,2020-10-22,6450000,전라북도,전라북도
유치원,이리동남초등학교병설유치원,전라북도 익산시 동천로7길 18,전북 익산시 동산동 140-1,35.93131975,126.9707098,전라북도 익산시청,전라북도 익산경찰서,Y,,,2020-10-22,6450000,전라북도,전라북도
초등학교,이리계문초등학교,전라북도 익산시 계문길 79-8,전북 익산시 신용동 670-2,35.9736567928,126.9442256863,전라북도 익산시청,전라북도 익산경찰서,Y,,,2020-10-22,6450000,전라북도,전라북도
초등학교,이리부천초등학교,전라북도 익산시 부송1로 32,전북 익산시 부송동 1070,35.95655003,126.9855161,전라북도 익산시청,전라북도 익산경찰서,Y,,,2020-10-22,6450000,전라북도,전라북도
유치원,이리부천초등학교병설유치원,전라북도 익산시 부송1로 32,전북 익산시 부송동 1070,35.95655003,126.9855161,전라북도 익산시청,전라북도 익산경찰서,Y,,,2020-10-22,6450000,전라북도,전라북도
학원,링구아어학원,부산광역시 남구 유엔로157번길 4,부산 남구 대연동 879-17,35.13038328,129.093491,부산광역시 남구청,부산광역시 남부경찰서,Y,,,2021-06-09,3310000,부산광역시 남구,부산광역시
유치원,대연자연유치원,부산광역시 남구 수영로 345,부산 남구 대연동 1858,35.13988755,129.103525,부산광역시 남구청,부산광역시 남부경찰서,Y,,,2021-06-09,3310000,부산광역시 남구,부산광역시
유치원,키즈포레유치원,부산광역시 남구 유엔평화로47번길 98,부산 남구 대연동 865-5,35.13056687,129.097632,부산광역시 남구청,부산광역시 남부경찰서,N,,,2021-06-09,3310000,부산광역시 남구,부산광역시
유치원,마루유치원,부산광역시 남구 용주로30번길 69,부산 남구 용호동 563-39,35.10997691,129.113439,부산광역시 남구청,부산광역시 남부경찰서,Y,,,2021-06-09,3310000,부산광역시 남구,부산광역시
어린이집,한샘어린이집,부산광역시 남구 솔밭로 18번길 60,부산 남구 우암동 127-51,35.1283264,129.0739678,부산광역시 남구청,부산광역시 남부경찰서,N,,,2021-06-09,3310000,부산광역시 남구,부산광역시
유치원,새부산유치원,부산광역시 남구 황령대로319번나길 14,부산 남구 대연동 251,35.15034371,129.0908799,부산광역시 남구청,부산광역시 남부경찰서,N,,,2021-06-09,3310000,부산광역시 남구,부산광역시
초등학교,이리고현초등학교,전라북도 익산시 선화로23길 44,전북 익산시 모현동1가 73,35.95210144,126.9468976,전라북도 익산시청,전라북도 익산경찰서,Y,,,2020-10-22,6450000,전라북도,전라북도
유치원,이리고현초등학교병설유치원,전라북도 익산시 선화로23길 44,전북 익산시 모현동1가 73,35.95210144,126.9468976,전라북도 익산시청,전라북도 익산경찰서,Y,,,2020-10-22,6450000,전라북도,전라북도
초등학교,이리남창초등학교,전라북도 익산시 인북로 171,전북 익산시 남중동 252-2,35.94520082,126.9538758,전라북도 익산시청,전라북도 익산경찰서,Y,,,2020-10-22,6450000,전라북도,전라북도
유치원,이리남창초등학교병설유치원,전라북도 익산시 인북로 171,전북 익산시 남중동 252-2,35.94520082,126.9538758,전라북도 익산시청,전라북도 익산경찰서,Y,,,2020-10-22,6450000,전라북도,전라북도
초등학교,이리동초등학교,전라북도 익산시 동서로51길 57,전북 익산시 영등동 155,35.95764099,126.9769609,전라북도 익산시청,전라북도 익산경찰서,Y,,,2020-10-22,6450000,전라북도,전라북도
유치원,이리동초등학교병설유치원,전라북도 익산시 동서로51길 57,전북 익산시 영등동 155,35.95764099,126.9769609,전라북도 익산시청,전라북도 익산경찰서,Y,,,2020-10-22,6450000,전라북도,전라북도
초등학교,이리동산초등학교,전라북도 익산시 평동로23길 46,전북 익산시 동산동 220,35.93185506,126.9639765,전라북도 익산시청,전라북도 익산경찰서,Y,,,2020-10-22,6450000,전라북도,전라북도
유치원,이리동산초등학교병설유치원,전라북도 익산시 평동로23길 46,전북 익산시 동산동 220,35.93185506,126.9639765,전라북도 익산시청,전라북도 익산경찰서,Y,,,2020-10-22,6450000,전라북도,전라북도
초등학교,이리모현초등학교,전라북도 익산시 배산로14길 12-4,전북 익산시 모현동1가 264-7,35.94552272,126.9399639,전라북도 익산시청,전라북도 익산경찰서,Y,,,2020-10-22,6450000,전라북도,전라북도
초등학교,이리북일초등학교,전라북도 익산시 동서로19길 100,전북 익산시 신동 764-1,35.96278776,126.9592222,전라북도 익산시청,전라북도 익산경찰서,Y,,,2020-10-22,6450000,전라북도,전라북도
유치원,이리북일초등학교병설유치원,전라북도 익산시 동서로19길 100,전북 익산시 신동 764-1,35.96278776,126.9592222,전라북도 익산시청,전라북도 익산경찰서,Y,,,2020-10-22,6450000,전라북도,전라북도
초등학교,이리영등초등학교,전라북도 익산시 동서로41길 37,전북 익산시 영등동 762,35.95307254,126.9723733,전라북도 익산시청,전라북도 익산경찰서,Y,,,2020-10-22,6450000,전라북도,전라북도
초등학교,이리팔봉초등학교,전라북도 익산시 무왕로31길 10,전북 익산시 팔봉동 403-1,35.96759578,127.0130243,전라북도 익산시청,전라북도 익산경찰서,Y,,,2020-10-22,6450000,전라북도,전라북도
유치원,이리팔봉초등학교병설유치원,전라북도 익산시 무왕로31길 10,전북 익산시 팔봉동 403-1,35.96759578,127.0130243,전라북도 익산시청,전라북도 익산경찰서,Y,,,2020-10-22,6450000,전라북도,전라북도
초등학교,이리삼성초등학교,전라북도 익산시 하나로15길 17-7,전북 익산시 임상동 227-1,35.9883264090,126.9759497365,전라북도 익산시청,전라북도 익산경찰서,Y,,,2020-10-22,6450000,전라북도,전라북도
어린이집,해찬솔 어린이집,경기도 평택시 산단로121번길 40,경기 평택시 가재동 142-1,37.038737,127.0845217,경기도 평택시청,평택경찰서,Y,1,,2020-04-28,3910000,경기도 평택시,경기도
어린이집,야호 어린이집,경기도 평택시 신한4길 26-1,경기 평택시 비전동 225-25,36.992906,127.1060482,경기도 평택시청,평택경찰서,Y,1,,2020-04-28,3910000,경기도 평택시,경기도
특수학교,에바다학교,경기도 평택시 진위면 하북4길 129-23,경기 평택시 진위면 하북리 72-1,37.11301767,127.066808,경기도 평택시청,평택경찰서,Y,1,,2020-04-28,3910000,경기도 평택시,경기도
유치원,다솜유치원,전라북도 익산시 신기1길 18,전북 익산시 모현동2가 502-10,35.9609392429,126.9360885765,전라북도 익산시청,익산경찰서,Y,,,2021-03-17,4680000,전라북도 익산시,전라북도
초등학교,천서초등학교,전라북도 익산시 춘포면 천서길 221,전북 익산시 춘포면 천서리 85-2,35.9461524,127.0366528494,전라북도 익산시청,익산경찰서,Y,,,2021-03-17,4680000,전라북도 익산시,전라북도
유치원,이리신동초등학교병설유치원,전라북도 익산시 무왕로 981,전북 익산시 신동 626-2,35.9616205,126.9672177416,전라북도 익산시청,익산경찰서,Y,,,2021-03-17,4680000,전라북도 익산시,전라북도
초등학교,미륵초등학교,전라북도 익산시 금마면 용순길 243,전북 익산시 금마면 용순리 645-1,36.0013819713,127.0226167053,전라북도 익산시청,익산경찰서,Y,,,2021-03-17,4680000,전라북도 익산시,전라북도
유치원,미륵초등학교병설유치원,전라북도 익산시 금마면 용순길 243,전북 익산시 금마면 용순리 645-1,36.0013819713,127.0226167053,전라북도 익산시청,익산경찰서,Y,,,2021-03-17,4680000,전라북도 익산시,전라북도
초등학교,용북초등학교,전라북도 익산시 용안면 용북로 81,전북 익산시 용안면 법성리 375-3,36.1343278624,126.9477188989,전라북도 익산시청,익산경찰서,Y,,,2021-03-17,4680000,전라북도 익산시,전라북도
유치원,용북초등학교병설유치원,전라북도 익산시 용안면 용북로 81,전북 익산시 용안면 법성리 375-3,36.1343278624,126.9477188989,전라북도 익산시청,익산경찰서,Y,,,2021-03-17,4680000,전라북도 익산시,전라북도
초등학교,가온초등학교,전라북도 익산시 선화로1길 106,전북 익산시 모현동2가 636,35.9563259305,126.938257497,전라북도 익산시청,익산경찰서,N,,,2021-03-17,4680000,전라북도 익산시,전라북도
특수학교,전북혜화학교,전라북도 익산시 덕기길 77,전북 익산시 덕기동 751-5,35.9662481614,127.0297243656,전라북도 익산시청,익산경찰서,Y,,,2021-03-17,4680000,전라북도 익산시,전라북도
특수학교,전북맹아학교,전라북도 익산시 서동로46길 41,전북 익산시 석암동 358-25,35.9413716099,127.0055953439,전라북도 익산시청,익산경찰서,Y,,,2021-03-17,4680000,전라북도 익산시,전라북도
유치원,동광유치원,전라북도 익산시 평동로 751-1,전북 익산시 동산동 637-13,35.9283429,126.9613801,전라북도 익산시청,익산경찰서,N,,,2021-03-17,4680000,전라북도 익산시,전라북도
유치원,신광유치원,전라북도 익산시 고봉로 60,전북 익산시 마동 129-2,35.9396089148,126.9625145664,전라북도 익산시청,익산경찰서,Y,,,2021-03-17,4680000,전라북도 익산시,전라북도
유치원,천일유치원,전라북도 익산시 주현로2길 12,전북 익산시 인화동2가 39-14,35.9318707036,126.9567514513,전라북도 익산시청,익산경찰서,N,,,2021-03-17,4680000,전라북도 익산시,전라북도
유치원,참마음유치원,전라북도 익산시 부송로6길 1,전북 익산시 부송동 1043,35.9550811,126.9923072476,전라북도 익산시청,익산경찰서,Y,,,2021-03-17,4680000,전라북도 익산시,전라북도
유치원,이리북일초등학교병설유치원,전라북도 익산시 동서로19길 100,전북 익산시 신동 764-1,35.9627877615,126.9592222382,전라북도 익산시청,익산경찰서,Y,,,2021-03-17,4680000,전라북도 익산시,전라북도
초등학교,이리영등초등학교,전라북도 익산시 동서로41길 37,전북 익산시 영등동 762,35.9530725365,126.9723733011,전라북도 익산시청,익산경찰서,Y,,,2021-03-17,4680000,전라북도 익산시,전라북도
초등학교,이리팔봉초등학교,전라북도 익산시 무왕로31길 10,전북 익산시 팔봉동 403-1,35.9675957841,127.0130243094,전라북도 익산시청,익산경찰서,Y,,,2021-03-17,4680000,전라북도 익산시,전라북도
유치원,이리팔봉초등학교병설유치원,전라북도 익산시 무왕로31길 10,전북 익산시 팔봉동 403-1,35.9675957841,127.0130243094,전라북도 익산시청,익산경찰서,Y,,,2021-03-17,4680000,전라북도 익산시,전라북도
초등학교,이리삼성초등학교,전라북도 익산시 하나로15길 17-7,전북 익산시 임상동 227-1,35.9883264090,126.9759497365,전라북도 익산시청,익산경찰서,Y,,,2021-03-17,4680000,전라북도 익산시,전라북도
초등학교,금마초등학교,전라북도 익산시 금마면 금마4길 38,전북 익산시 금마면 동고도리 155,35.9910677092,127.0559199757,전라북도 익산시청,익산경찰서,Y,,,2021-03-17,4680000,전라북도 익산시,전라북도
유치원,익산궁동초등학교병설유치원,전라북도 익산시 무왕로25길 26,전북 익산시 부송동 1119,35.9623763599,126.9939117466,전라북도 익산시청,익산경찰서,Y,,,2021-03-17,4680000,전라북도 익산시,전라북도
초등학교,익산초등학교,전라북도 익산시 동서로61길 27-38,전북 익산시 어양동 593,35.9545959876,126.9795409525,전라북도 익산시청,익산경찰서,Y,,,2021-03-17,4680000,전라북도 익산시,전라북도
유치원,익산초등학교병설유치원,전라북도 익산시 동서로61길 27-38,전북 익산시 어양동 593,35.9545959876,126.9795409525,전라북도 익산시청,익산경찰서,Y,,,2021-03-17,4680000,전라북도 익산시,전라북도
초등학교,한벌초등학교,전라북도 익산시 부송1로 115,전북 익산시 부송동 1204,35.9588795795,126.9945283514,전라북도 익산시청,익산경찰서,Y,,,2021-03-17,4680000,전라북도 익산시,전라북도
초등학교,익산옥야초등학교,전라북도 익산시 옛둑2길 52,전북 익산시 동산동 539-3,35.9222717689,126.9599920601,전라북도 익산시청,익산경찰서,Y,,,2021-03-17,4680000,전라북도 익산시,전라북도
유치원,익산옥야초등학교병설유치원,전라북도 익산시 옛둑2길 52,전북 익산시 동산동 539-3,35.9222717689,126.9599920601,전라북도 익산시청,익산경찰서,Y,,,2021-03-17,4680000,전라북도 익산시,전라북도
초등학교,다송초등학교,전라북도 익산시 함열읍 익산대로 1351,전북 익산시 함열읍 다송리 477-1,36.0414341,126.9550745916,전라북도 익산시청,익산경찰서,Y,,,2021-03-17,4680000,전라북도 익산시,전라북도
유치원,다송초등학교병설유치원,전라북도 익산시 함열읍 익산대로 1351,전북 익산시 함열읍 다송리 477-1,36.0414341,126.9550745916,전라북도 익산시청,익산경찰서,Y,,,2021-03-17,4680000,전라북도 익산시,전라북도
유치원,천서초등학교병설유치원,전라북도 익산시 촌포면 천서길 221,전라북도 익산시 춘포면 천서리 85-2,35.9461524,127.036559,전라북도 익산시청,익산경찰서,Y,,,2021-03-17,4680000,전라북도 익산시,전라북도
초등학교,용성초등학교,전라북도 익산시 낭산면 하맹길 183,전북 익산시 낭산면 구평리 598-1,36.0565659296,126.9996541591,전라북도 익산시청,익산경찰서,Y,,,2021-03-17,4680000,전라북도 익산시,전라북도
유치원,용성초등학교병설유치원,전라북도 익산시 낭산면 하맹길 183,전북 익산시 낭산면 구평리 598-1,36.0565659296,126.9996541591,전라북도 익산시청,익산경찰서,Y,,,2021-03-17,4680000,전라북도 익산시,전라북도
초등학교,이리서초등학교,전라북도 익산시 익산대로 213,전북 익산시 남중동 458-7,35.9452701149,126.9489539315,전라북도 익산시청,익산경찰서,Y,,,2021-03-17,4680000,전라북도 익산시,전라북도
유치원,이리서초등학교병설유치원,전라북도 익산시 익산대로 213,전북 익산시 남중동 458-7,35.9452701149,126.9489539315,전라북도 익산시청,익산경찰서,Y,,,2021-03-17,4680000,전라북도 익산시,전라북도
초등학교,이리신동초등학교,전라북도 익산시 무왕로 981,전북 익산시 신동 626-2,35.9616205,126.9672177416,전라북도 익산시청,익산경찰서,Y,,,2021-03-17,4680000,전라북도 익산시,전라북도
유치원,이리남창초등학교병설유치원,전라북도 익산시 인북로 171,전북 익산시 남중동 252-2,35.9452008189,126.9538758370,전라북도 익산시청,익산경찰서,Y,,,2021-03-17,4680000,전라북도 익산시,전라북도
초등학교,이리동초등학교,전라북도 익산시 동서로51길 57,전북 익산시 영등동 155,35.9576409915,126.9769609061,전라북도 익산시청,익산경찰서,Y,,,2021-03-17,4680000,전라북도 익산시,전라북도
유치원,이리동초등학교병설유치원,전라북도 익산시 동서로51길 57,전북 익산시 영등동 155,35.9576409915,126.9769609061,전라북도 익산시청,익산경찰서,Y,,,2021-03-17,4680000,전라북도 익산시,전라북도
초등학교,이리동산초등학교,전라북도 익산시 평동로23길 46,전북 익산시 동산동 220,35.9318550642,126.9639765410,전라북도 익산시청,익산경찰서,Y,,,2021-03-17,4680000,전라북도 익산시,전라북도
유치원,이리동산초등학교병설유치원,전라북도 익산시 평동로23길 46,전북 익산시 동산동 220,35.9318550642,126.9639765410,전라북도 익산시청,익산경찰서,Y,,,2021-03-17,4680000,전라북도 익산시,전라북도
초등학교,이리모현초등학교,전라북도 익산시 배산로14길 12-4,전북 익산시 모현동1가 264-7,35.9455227189,126.9399638665,전라북도 익산시청,익산경찰서,Y,,,2021-03-17,4680000,전라북도 익산시,전라북도
초등학교,이리부송초등학교,전라북도 익산시 부송로 2길 27,전북 익산시 부송동 1047,35.9552349235,126.9937039027,전라북도 익산시청,익산경찰서,Y,,,2021-03-17,4680000,전라북도 익산시,전라북도
유치원,이리부송초등학교병설유치원,전라북도 익산시 부송로 2길 27,전북 익산시 부송동 1047,35.9552349235,126.9937039027,전라북도 익산시청,익산경찰서,Y,,,2021-03-17,4680000,전라북도 익산시,전라북도
초등학교,이리북일초등학교,전라북도 익산시 동서로19길 100,전북 익산시 신동 764-1,35.9627877615,126.9592222382,전라북도 익산시청,익산경찰서,Y,,,2021-03-17,4680000,전라북도 익산시,전라북도
초등학교,"단양초등학교, 단양초교(병설유치원)",충청북도 단양군 단양읍 도전2길 15,충북 단양군 단양읍 도전리 405,36.97952998,128.3690393,충청북도 단양군청,충청북도 단양경찰서,Y,8,16,2021-03-15,4480000,충청북도 단양군,충청북도
초등학교,"대강초등학교, 대강초교(병설유치원)",충청북도 단양군 대강면 대강로 6,충북 단양군 대강면 장림리 91,36.92171175,128.3583945,충청북도 단양군청,충청북도 단양경찰서,Y,3,16,2021-03-15,4480000,충청북도 단양군,충청북도
초등학교,"매포초등학교, 매포초교(병설유치원)",충청북도 단양군 매포읍 단양로 1929,충북 단양군 매포읍 평동리 271,37.03444106,128.3016801,충청북도 단양군청,충청북도 단양경찰서,Y,7,34,2021-03-15,4480000,충청북도 단양군,충청북도
초등학교,상진초등학교,충청북도 단양군 단양읍 상진12길 17,충북 단양군 단양읍 상진리 734,36.97923763,128.3567122,충청북도 단양군청,충청북도 단양경찰서,Y,7,16,2021-03-15,4480000,충청북도 단양군,충청북도
초등학교,"가곡초등학교, 가곡초교(병설유치원)",충청북도 단양군 가곡면 남한강로 548,충북 단양군 가곡면 사평리 435,37.02689574,128.385559,충청북도 단양군청,충청북도 단양경찰서,Y,2,12,2021-03-15,4480000,충청북도 단양군,충청북도
초등학교,"영춘초등학교, 영춘초교(병설유치원)",충청북도 단양군 영춘면 온달평강로 63-6,충북 단양군 영춘면 상리 640,37.08079475,128.4826158,충청북도 단양군청,충청북도 단양경찰서,Y,2,12,2021-03-15,4480000,충청북도 단양군,충청북도
초등학교,"어상천초등학교, 어상천초교(병설유치원)",충청북도 단양군 어상천면 어상천로 930,충북 단양군 어상천면 임현리 456-1,37.10292721,128.358035,충청북도 단양군청,충청북도 단양경찰서,Y,2,12,2021-03-15,4480000,충청북도 단양군,충청북도
초등학교,"별방초등학교, 별방초교(병설유치원)",충청북도 단양군 영춘면 별방창원로 449,충북 단양군 영춘면 별방리 540,37.09638512,128.4154063,충청북도 단양군청,충청북도 단양경찰서,Y,2,12,2021-03-15,4480000,충청북도 단양군,충청북도
초등학교,가곡초등학교(보발분교),충청북도 단양군 가곡면 보발본동1길 17,충북 단양군 가곡면 보발리 711-1,37.029533,128.4487684,충청북도 단양군청,충청북도 단양경찰서,Y,2,12,2021-03-15,4480000,충청북도 단양군,충청북도
초등학교,"대가초등학교, 대가초교(병설유치원)",충청북도 단양군 적성면 적성로 453,충북 단양군 적성면 대가리 191,37.033529,128.2625315,충청북도 단양군청,충청북도 단양경찰서,Y,2,12,2021-03-15,4480000,충청북도 단양군,충청북도
유치원,이리신흥초등학교병설유치원,전라북도 익산시 하나로3길 10,전북 익산시 금강동 349-1,35.93481111,126.9790022,전라북도 익산시청,전라북도 익산경찰서,Y,,,2020-10-22,6450000,전라북도,전라북도
초등학교,이리북초등학교,전라북도 익산시 인북로58길 11,전북 익산시 남중동 7-4,35.9526357652,126.9611932593,전라북도 익산시청,전라북도 익산경찰서,Y,,,2020-10-22,6450000,전라북도,전라북도
유치원,이리북초등학교병설유치원,전라북도 익산시 인북로58길 11,전북 익산시 남중동 7-4,35.9526357652,126.9611932593,전라북도 익산시청,전라북도 익산경찰서,Y,,,2020-10-22,6450000,전라북도,전라북도
초등학교,이리남초등학교,전라북도 익산시 번영로 2040-9,전북 익산시 목천동 444-3,35.91425508,126.9301937,전라북도 익산시청,전라북도 익산경찰서,Y,,,2020-10-22,6450000,전라북도,전라북도
초등학교,이리백제초등학교,전라북도 익산시 궁동로 29,전북 익산시 영등동 813,35.96233764,126.9739487,전라북도 익산시청,전라북도 익산경찰서,Y,,,2020-10-22,6450000,전라북도,전라북도
유치원,이리백제초등학교병설유치원,전라북도 익산시 궁동로 29,전북 익산시 영등동 813,35.96233764,126.9739487,전라북도 익산시청,전라북도 익산경찰서,Y,,,2020-10-22,6450000,전라북도,전라북도
초등학교,이리마한초등학교,전라북도 익산시 무왕로17길 47,전북 익산시 영등동 817,35.96238544,126.9787332,전라북도 익산시청,전라북도 익산경찰서,Y,,,2020-10-22,6450000,전라북도,전라북도
유치원,이리마한초등학교병설유치원,전라북도 익산시 무왕로17길 47,전북 익산시 영등동 817,35.96238544,126.9787332,전라북도 익산시청,전라북도 익산경찰서,Y,,,2020-10-22,6450000,전라북도,전라북도
초등학교,익산어양초등학교,전라북도 익산시 하나로10길 23,전북 익산시 어양동 692,35.96162553,126.9833583,전라북도 익산시청,전라북도 익산경찰서,Y,,,2020-10-22,6450000,전라북도,전라북도
초등학교,익산궁동초등학교,전라북도 익산시 무왕로25길 26,전북 익산시 부송동 1119,35.96237636,126.9939117,전라북도 익산시청,전라북도 익산경찰서,Y,,,2020-10-22,6450000,전라북도,전라북도
초등학교,이리동북초등학교,전라북도 익산시 고봉로 190-3,전북 익산시 영등동 260-5,35.9491279,126.9690628,전라북도 익산시청,전라북도 익산경찰서,Y,,,2020-10-22,6450000,전라북도,전라북도
유치원,이리동북초등학교병설유치원,전라북도 익산시 고봉로 190-3,전북 익산시 영등동 260-5,35.9491279,126.9690628,전라북도 익산시청,전라북도 익산경찰서,Y,,,2020-10-22,6450000,전라북도,전라북도
초등학교,이리중앙초등학교,전라북도 익산시 인북로 77,전북 익산시 갈산동 47,35.9356789,126.9508715,전라북도 익산시청,전라북도 익산경찰서,Y,,,2020-10-22,6450000,전라북도,전라북도
유치원,이리중앙초등학교병설유치원,전라북도 익산시 인북로 77,전북 익산시 갈산동 47,35.9356789,126.9508715,전라북도 익산시청,전라북도 익산경찰서,Y,,,2020-10-22,6450000,전라북도,전라북도
초등학교,이리송학초등학교,전라북도 익산시 학곤로57,전북 익산시 송학동 97-7,35.93698652,126.9407062,전라북도 익산시청,전라북도 익산경찰서,Y,,,2020-10-22,6450000,전라북도,전라북도
유치원,이리송학초등학교병설유치원,전라북도 익산시 학곤로57,전북 익산시 송학동 97-7,35.93698652,126.9407062,전라북도 익산시청,전라북도 익산경찰서,Y,,,2020-10-22,6450000,전라북도,전라북도
초등학교,이리신흥초등학교,전라북도 익산시 하나로3길 10,전북 익산시 금강동 349-1,35.93481111,126.9790022,전라북도 익산시청,전라북도 익산경찰서,Y,,,2020-10-22,6450000,전라북도,전라북도
초등학교,가곡초등학교(대곡분교),충청북도 단양군 가곡면 대대길 51,충북 단양군 가곡면 대대리 220-1,36.99798763,128.4263411,충청북도 단양군청,충청북도 단양경찰서,Y,2,5,2021-03-15,4480000,충청북도 단양군,충청북도
초등학교,금성초등학교,전라북도 익산시 성당면 성당로 649,전북 익산시 성당면 두동리 702,36.1223802650,126.9210331085,전라북도 익산시청,익산경찰서,Y,,,2021-03-17,4680000,전라북도 익산시,전라북도
특수학교,배화학교,부산광역시 수영구 연수로310번길 73,부산 수영구 망미동 787,35.16911304,129.1029495,부산광역시 수영구청,연제경찰서,Y,,6~12,2021-06-30,3380000,부산광역시 수영구,부산광역시
초등학교,광남초등,부산광역시 수영구 광안해변로 115,부산 수영구 남천동 147,35.14507176,129.1134247,부산광역시 수영구청,남부경찰서,Y,1,4~8,2021-06-30,3380000,부산광역시 수영구,부산광역시
초등학교,광안초등,부산광역시 수영구 광안로21번가길 38,부산 수영구 광안동 152-21,35.15652651,129.1171796,부산광역시 수영구청,남부경찰서,Y,,5~16,2021-06-30,3380000,부산광역시 수영구,부산광역시
초등학교,남천초등,부산광역시 수영구 남천서로 14,부산 수영구 남천동 69-27,35.14351616,129.1071266,부산광역시 수영구청,남부경찰서,Y,,6,2021-06-30,3380000,부산광역시 수영구,부산광역시
초등학교,망미초등,부산광역시 수영구 수미로35번길 27,부산 수영구 망미동 268-2,35.17491546,129.1143903,부산광역시 수영구청,연제경찰서,Y,1,6~10,2021-06-30,3380000,부산광역시 수영구,부산광역시
초등학교,민락초등,부산광역시 수영구 광남로257번길 12,부산 수영구 민락동 3,35.1609477,129.126942,부산광역시 수영구청,남부경찰서,Y,1,6~8,2021-06-30,3380000,부산광역시 수영구,부산광역시
초등학교,민안초등,부산광역시 수영구 감포로38번길 33,부산 수영구 민락동 551-12,35.16306671,129.1212163,부산광역시 수영구청,남부경찰서,Y,,6~8,2021-06-30,3380000,부산광역시 수영구,부산광역시
초등학교,배산초등,부산광역시 수영구 망미배산로48번길 85-15,부산 수영구 망미동 920,35.1771617,129.1019364,부산광역시 수영구청,연제경찰서,Y,,6,2021-06-30,3380000,부산광역시 수영구,부산광역시
초등학교,수미초등,부산광역시 수영구 연수로310번길 91,부산 수영구 망미동 760,35.168751,129.1037225,부산광역시 수영구청,연제경찰서,Y,,6,2021-06-30,3380000,부산광역시 수영구,부산광역시
초등학교,수영초등,부산광역시 수영구 광서로16번길 33,부산 수영구 광안동 725-3,35.1661244,129.112038,부산광역시 수영구청,남부경찰서,Y,,6,2021-06-30,3380000,부산광역시 수영구,부산광역시
초등학교,호암초등,부산광역시 수영구 호암로 57,부산 수영구 광안동 1194-2,35.15816402,129.106338,부산광역시 수영구청,남부경찰서,Y,,6,2021-06-30,3380000,부산광역시 수영구,부산광역시
유치원,경은유치원,부산광역시 수영구 감포로88번길 16,부산 수영구 민락동 141-4,35.166182,129.119175,부산광역시 수영구청,남부경찰서,Y,1,6~12,2021-06-30,3380000,부산광역시 수영구,부산광역시
유치원,금련사유치원,부산광역시 수영구 광일로67번길 16,부산 수영구 광안동 521,35.16220888,129.1055151,부산광역시 수영구청,남부경찰서,Y,,6~16,2021-06-30,3380000,부산광역시 수영구,부산광역시
유치원,옥련유치원,부산광역시 수영구 광남로257번길 58(민락동),부산 수영구 민락동 327-2,35.16136852,129.126575,부산광역시 수영구청,남부경찰서,Y,,6~8,2021-06-30,3380000,부산광역시 수영구,부산광역시
유치원,나은유치원,부산광역시 수영구 망미번영로13번길 45,부산 수영구 광안동 980-1,35.16891594,129.105372,부산광역시 수영구청,남부경찰서,Y,,6,2021-06-30,3380000,부산광역시 수영구,부산광역시
유치원,영만초등학교병설유치원,전라북도 익산시 오산면 항쟁로 129,전북 익산시 오산면 영만리 950-6,35.9599298501,126.9064267109,전라북도 익산시청,익산경찰서,Y,,,2021-03-17,4680000,전라북도 익산시,전라북도
초등학교,황등초등학교,전라북도 익산시 황등면 황금로 17-6,전북 익산시 황등면 황등리 650-1,36.0092770008,126.9451566467,전라북도 익산시청,익산경찰서,Y,,,2021-03-17,4680000,전라북도 익산시,전라북도
유치원,황등초등학교병설유치원,전라북도 익산시 황등면 황금로 17-6,전북 익산시 황등면 황등리 650-1,36.0092770008,126.9451566467,전라북도 익산시청,익산경찰서,Y,,,2021-03-17,4680000,전라북도 익산시,전라북도
초등학교,망성초등학교,전라북도 익산시 망성면 여강로 903,전북 익산시 망성면 장선리 136-1,36.1206995704,127.0286423617,전라북도 익산시청,익산경찰서,Y,,,2021-03-17,4680000,전라북도 익산시,전라북도
유치원,망성초등학교병설유치원,전라북도 익산시 망성면 여강로 903,전북 익산시 망성면 장선리 136-1,36.1206995704,127.0286423617,전라북도 익산시청,익산경찰서,Y,,,2021-03-17,4680000,전라북도 익산시,전라북도
유치원,금성초등학교병설유치원,전라북도 익산시 성당면 성당로 649,전북 익산시 성당면 두동리 702,36.1223802650,126.9210331085,전라북도 익산시청,익산경찰서,Y,,,2021-03-17,4680000,전라북도 익산시,전라북도
초등학교,웅포초등학교,전라북도 익산시 웅포면 강변로 10-1,전북 익산시 웅포면 웅포리 383,36.0650088,126.8782942444,전라북도 익산시청,익산경찰서,Y,,,2021-03-17,4680000,전라북도 익산시,전라북도
유치원,웅포초등학교병설유치원,전라북도 익산시 웅포면 강변로 10-1,전북 익산시 웅포면 웅포리 383,36.0650088,126.8782942444,전라북도 익산시청,익산경찰서,Y,,,2021-03-17,4680000,전라북도 익산시,전라북도
초등학교,황등남초등학교,전라북도 익산시 황등면 황등서로 44,전북 익산시 황등면 황등리 963-3,36.0033500976,126.9387491418,전라북도 익산시청,익산경찰서,Y,,,2021-03-17,4680000,전라북도 익산시,전라북도
유치원,황등남초등학교병설유치원,전라북도 익산시 황등면 황등서로 44,전북 익산시 황등면 황등리 963-3,36.0033500976,126.9387491418,전라북도 익산시청,익산경찰서,Y,,,2021-03-17,4680000,전라북도 익산시,전라북도
초등학교,용안초등학교,전라북도 익산시 용안면 용안교동1길 6-1,전북 익산시 용안면 교동리 250,36.1206868529,126.9544449947,전라북도 익산시청,익산경찰서,Y,,,2021-03-17,4680000,전라북도 익산시,전라북도
유치원,용안초등학교병설유치원,전라북도 익산시 용안면 용안교동1길 6-1,전북 익산시 용안면 교동리 250,36.1206868529,126.9544449947,전라북도 익산시청,익산경찰서,Y,,,2021-03-17,4680000,전라북도 익산시,전라북도
초등학교,삼기초등학교,전라북도 익산시 삼기면 황금로 523,전북 익산시 삼기면 간촌리 43-2,36.0200397240,126.9854992526,전라북도 익산시청,익산경찰서,Y,,,2021-03-17,4680000,전라북도 익산시,전라북도
유치원,삼기초등학교병설유치원,전라북도 익산시 삼기면 황금로 523,전북 익산시 삼기면 간촌리 43-2,36.0200397240,126.9854992526,전라북도 익산시청,익산경찰서,Y,,,2021-03-17,4680000,전라북도 익산시,전라북도
초등학교,용산초등학교,전라북도 익산시 황등면 용산로 193,전북 익산시 황등면 죽촌리 27-5,36.0401795492,126.9383049552,전라북도 익산시청,익산경찰서,Y,,,2021-03-17,4680000,전라북도 익산시,전라북도
유치원,용산초등학교병설유치원,전라북도 익산시 황등면 용산로 193,전북 익산시 황등면 죽촌리 27-5,36.0401795492,126.9383049552,전라북도 익산시청,익산경찰서,Y,,,2021-03-17,4680000,전라북도 익산시,전라북도
초등학교,춘포초등학교,전라북도 익산시 춘포면 춘포로 408,전북 익산시 춘포면 용연리 811,35.9017016703,127.0107763519,전라북도 익산시청,익산경찰서,Y,,,2021-03-17,4680000,전라북도 익산시,전라북도
유치원,춘포초등학교병설유치원,전라북도 익산시 춘포면 춘포로 408,전북 익산시 춘포면 용연리 811,35.9017016703,127.0107763519,전라북도 익산시청,익산경찰서,Y,,,2021-03-17,4680000,전라북도 익산시,전라북도
초등학교,이리고현초등학교,전라북도 익산시 선화로23길 44,전북 익산시 모현동1가 73,35.9521014436,126.9468976228,전라북도 익산시청,익산경찰서,Y,,,2021-03-17,4680000,전라북도 익산시,전라북도
유치원,이리고현초등학교병설유치원,전라북도 익산시 선화로23길 44,전북 익산시 모현동1가 73,35.9521014436,126.9468976228,전라북도 익산시청,익산경찰서,Y,,,2021-03-17,4680000,전라북도 익산시,전라북도
초등학교,이리남창초등학교,전라북도 익산시 인북로 171,전북 익산시 남중동 252-2,35.9452008189,126.9538758370,전라북도 익산시청,익산경찰서,Y,,,2021-03-17,4680000,전라북도 익산시,전라북도
유치원,석불초등학교병설유치원,전라북도 익산시 삼기면 진북로 267,전북 익산시 삼기면 연동리 643-2,36.0299490256,127.0059679627,전라북도 익산시청,익산경찰서,Y,,,2021-03-17,4680000,전라북도 익산시,전라북도
초등학교,함라초등학교,전라북도 익산시 함라면 함라1길 66,전북 익산시 함라면 함열리 139-1,36.0592003578,126.9109041845,전라북도 익산시청,익산경찰서,Y,,,2021-03-17,4680000,전라북도 익산시,전라북도
유치원,함라초등학교병설유치원,전라북도 익산시 함라면 함라1길 66,전북 익산시 함라면 함열리 139-1,36.0592003578,126.9109041845,전라북도 익산시청,익산경찰서,Y,,,2021-03-17,4680000,전라북도 익산시,전라북도
초등학교,영만초등학교,전라북도 익산시 오산면 항쟁로 129,전북 익산시 오산면 영만리 950-6,35.9599298501,126.9064267109,전라북도 익산시청,익산경찰서,Y,,,2021-03-17,4680000,전라북도 익산시,전라북도
초등학교,소안초등학교(병설포함),전라남도 완도군 소안면 소안로 213,전남 완도군 소안면 비자리 940,34.1725562171,126.6542943491,전라남도 완도군청,완도경찰서,Y,,,2020-09-02,4990000,전라남도 완도군,전라남도
어린이집,소안중앙어린이집,전라남도 완도군 소안면 비자34번길 18,전남 완도군 소안면 비자리 888-1,34.1723447370,126.655291,전라남도 완도군청,완도경찰서,Y,,,2020-09-02,4990000,전라남도 완도군,전라남도
어린이집,열미어린이집,경기도 광주시 곤지암읍 광여로 224-14,경기 광주시 곤지암읍 열미리 476-1,37.353257,127.367042,경기도 광주시청,광주경찰서,Y,5,13.5,2020-09-23,5540000,경기도 광주시,경기도
특수학교,한사랑학교,경기도 광주시 초월읍 산수로554번길 59-12,경기 광주시 초월읍 신월리 313-6,37.41058591,127.3130794,경기도 광주시청,광주경찰서,N,0,6,2020-09-23,5540000,경기도 광주시,경기도
초등학교,보길동초등학교(병설포함),전라남도 완도군 보길면 중리1길 6-18,전남 완도군 보길면 중통리 379-1,34.1633267755,126.5925684718,전라남도 완도군청,완도경찰서,Y,,,2020-09-02,4990000,전라남도 완도군,전라남도
어린이집,보길성신어린이집,전라남도 완도군 보길면 보길동로 144-20,전남 완도군 보길면 예송리 37-1,34.1607024762,126.5719238623,전라남도 완도군청,완도경찰서,Y,,,2020-09-02,4990000,전라남도 완도군,전라남도
초등학교,보길초등학교(병설포함),전라남도 완도군 보길면 부황길 57,전남 완도군 보길면 부황리 572-2,34.1624789917,126.5559442013,전라남도 완도군청,완도경찰서,Y,,,2020-09-02,4990000,전라남도 완도군,전라남도
초등학교,완도초등학교(병설포함),전라남도 완도군 완도읍 중앙길 43,전남 완도군 완도읍 군내리 319,34.3133973962,126.7610130352,전라남도 완도군청,완도경찰서,Y,,,2020-09-02,4990000,전라남도 완도군,전라남도
초등학교,완도중앙초등학교(병설포함),전라남도 완도군 완도읍 개포로135번길 37,전남 완도군 완도읍 가용리 29,34.3219398988,126.7401072296,전라남도 완도군청,완도경찰서,Y,,,2020-09-02,4990000,전라남도 완도군,전라남도
초등학교,청해초등학교(병설포함),전라남도 완도군 완도읍 청해진로 1374,전남 완도군 완도읍 장좌리 600,34.3594161743,126.7278074638,전라남도 완도군청,완도경찰서,Y,,,2020-09-02,4990000,전라남도 완도군,전라남도
초등학교,화흥초등학교(병설포함),전라남도 완도군 완도읍 청해진서로 824,전남 완도군 완도읍 화흥리 840,34.3255716872,126.7011770748,전라남도 완도군청,완도경찰서,Y,,,2020-09-02,4990000,전라남도 완도군,전라남도
어린이집,완도어린이집,전라남도 완도군 완도읍 청해진남로23번길 42-1,전남 완도군 완도읍 군내리 421-2,34.311087,126.759674,전라남도 완도군청,완도경찰서,Y,,,2020-09-02,4990000,전라남도 완도군,전라남도
유치원,완도유치원,전라남도 완도군 완도읍 개포로145번길 38-9,전남 완도군 완도읍 가용리 1054,34.3227525004,126.742995,전라남도 완도군청,완도경찰서,Y,,,2020-09-02,4990000,전라남도 완도군,전라남도
유치원,하나둘셋유치원,전라남도 완도군 완도읍 청해진서로 59,전남 완도군 완도읍 군내리 1162-11,34.311647,126.7394459147,전라남도 완도군청,완도경찰서,Y,,,2020-09-02,4990000,전라남도 완도군,전라남도
어린이집,성광어린이집,전라남도 완도군 완도읍 신기길 56-63,전남 완도군 완도읍 가용리 12-1,34.3252959775,126.742028,전라남도 완도군청,완도경찰서,Y,,,2020-09-02,4990000,전라남도 완도군,전라남도
초등학교,금일초등학교(병설포함),전라남도 완도군 금일읍 구동2길 35-1,전남 완도군 금일읍 신구리 680,34.3544622771,127.0335129769,전라남도 완도군청,완도경찰서,Y,,,2020-09-02,4990000,전라남도 완도군,전라남도
어린이집,금일제일어린이집,전라남도 완도군 금일읍 도장길 18-2,전남 완도군 금일읍 화목리 814-6,34.3556751682,127.0217462428,전라남도 완도군청,완도경찰서,Y,,,2020-09-02,4990000,전라남도 완도군,전라남도
초등학교,노화초등학교(병설포함),전라남도 완도군 노화읍 노화서로 149,전남 완도군 노화읍 도청리 324,34.1958644021,126.5699868457,전라남도 완도군청,완도경찰서,Y,,,2020-09-02,4990000,전라남도 완도군,전라남도
초등학교,넙도초등학교(병설포함),전라남도 완도군 노화읍 넙도길 294-31,전남 완도군 노화읍 내리 488-1,34.1884608246,126.5042111331,전라남도 완도군청,완도경찰서,Y,,,2020-09-02,4990000,전라남도 완도군,전라남도
초등학교,군외초등학교(병설포함),전라남도 완도군 군외면 청해진서로 2020,전남 완도군 군외면 신학리 666,34.3794259283,126.6466228444,전라남도 완도군청,완도경찰서,Y,,,2020-09-02,4990000,전라남도 완도군,전라남도
초등학교,신지동초등학교,전라남도 완도군 신지면 신지로 815-1,전남 완도군 신지면 신상리 211,34.3271797855,126.8506171752,전라남도 완도군청,완도경찰서,Y,,,2020-09-02,4990000,전라남도 완도군,전라남도
초등학교,신지초등학교(병설포함),전라남도 완도군 신지면 대곡48번길 37,전남 완도군 신지면 대곡리 850,34.3379318511,126.8297638115,전라남도 완도군청,완도경찰서,Y,,,2020-09-02,4990000,전라남도 완도군,전라남도
초등학교,고금초등학교(병설포함),전라남도 완도군 고금면 고금동로7-1,전남 완도군 고금면 덕암리 626-1,34.3965590683,126.8009209787,전라남도 완도군청,완도경찰서,Y,,,2020-09-02,4990000,전라남도 완도군,전라남도
초등학교,약산초등학교(병설포함),전라남도 완도군 약산면 약산로 351-1,전남 완도군 약산면 장용리 931,34.3940284266,126.8964669578,전라남도 완도군청,완도경찰서,Y,,,2020-09-02,4990000,전라남도 완도군,전라남도
초등학교,이리석암초등학교,전라북도 익산시 서동로 46길 119,전북 익산시 석암동 215-1,35.9351875824,127.0081823,전라북도 익산시청,익산경찰서,Y,,,2021-03-17,4680000,전라북도 익산시,전라북도
유치원,이리석암초등학교병설유치원,전라북도 익산시 서동로 46길 119,전북 익산시 석암동 215-1,35.9351875824,127.0081823,전라북도 익산시청,익산경찰서,Y,,,2021-03-17,4680000,전라북도 익산시,전라북도
초등학교,함열초등학교,전라북도 익산시 함열읍 함열8길 2,전북 익산시 함열읍 와리 220-11,36.0778619803,126.9660029881,전라북도 익산시청,익산경찰서,Y,,,2021-03-17,4680000,전라북도 익산시,전라북도
유치원,함열초등학교병설유치원,전라북도 익산시 함열읍 함열8길 2,전북 익산시 함열읍 와리 220-11,36.0778619803,126.9660029881,전라북도 익산시청,익산경찰서,Y,,,2021-03-17,4680000,전라북도 익산시,전라북도
초등학교,석불초등학교,전라북도 익산시 삼기면 진북로 267,전북 익산시 삼기면 연동리 643-2,36.0299490256,127.0059679627,전라북도 익산시청,익산경찰서,Y,,,2021-03-17,4680000,전라북도 익산시,전라북도
초등학교,이리송학초등학교,전라북도 익산시 학곤로57,전북 익산시 송학동 97-7,35.9369865192,126.9407061754,전라북도 익산시청,익산경찰서,Y,,,2021-03-17,4680000,전라북도 익산시,전라북도
유치원,이리송학초등학교병설유치원,전라북도 익산시 학곤로57,전북 익산시 송학동 97-7,35.9369865192,126.9407061754,전라북도 익산시청,익산경찰서,Y,,,2021-03-17,4680000,전라북도 익산시,전라북도
초등학교,이리신흥초등학교,전라북도 익산시 하나로3길 10,전북 익산시 금강동 349-1,35.9348111072,126.9790021557,전라북도 익산시청,익산경찰서,Y,,,2021-03-17,4680000,전라북도 익산시,전라북도
유치원,이리신흥초등학교병설유치원,전라북도 익산시 하나로3길 10,전북 익산시 금강동 349-1,35.9348111072,126.9790021557,전라북도 익산시청,익산경찰서,Y,,,2021-03-17,4680000,전라북도 익산시,전라북도
초등학교,이리북초등학교,전라북도 익산시 인북로58길 11,전북 익산시 남중동 7-4,35.9526357652,126.9611932593,전라북도 익산시청,익산경찰서,Y,,,2021-03-17,4680000,전라북도 익산시,전라북도
유치원,이리북초등학교병설유치원,전라북도 익산시 인북로58길 11,전북 익산시 남중동 7-4,35.9526357652,126.9611932593,전라북도 익산시청,익산경찰서,Y,,,2021-03-17,4680000,전라북도 익산시,전라북도
초등학교,이리남초등학교,전라북도 익산시 번영로 2040-9,전북 익산시 목천동 444-3,35.9142550784,126.9301937025,전라북도 익산시청,익산경찰서,Y,,,2021-03-17,4680000,전라북도 익산시,전라북도
초등학교,이리부천초등학교,전라북도 익산시 부송1로 32,전북 익산시 부송동 1070,35.9565500266,126.9855161,전라북도 익산시청,익산경찰서,Y,,,2021-03-17,4680000,전라북도 익산시,전라북도
유치원,이리부천초등학교병설유치원,전라북도 익산시 부송1로 32,전북 익산시 부송동 1070,35.9565500266,126.9855161,전라북도 익산시청,익산경찰서,Y,,,2021-03-17,4680000,전라북도 익산시,전라북도
초등학교,낭산초등학교,전라북도 익산시 낭산면 우신길 142,전북 익산시 낭산면 호암리 318-2,36.0666560943,127.0149858329,전라북도 익산시청,익산경찰서,Y,,,2021-03-17,4680000,전라북도 익산시,전라북도
유치원,낭산초등학교병설유치원,전라북도 익산시 낭산면 우신길 142,전북 익산시 낭산면 호암리 318-2,36.0666560943,127.0149858329,전라북도 익산시청,익산경찰서,Y,,,2021-03-17,4680000,전라북도 익산시,전라북도
초등학교,용남초등학교,전라북도 익산시 용안면 입산길 13,전북 익산시 용안면 동지산리 76,36.0955523838,126.9626157613,전라북도 익산시청,익산경찰서,Y,,,2021-03-17,4680000,전라북도 익산시,전라북도
초등학교,이리백제초등학교,전라북도 익산시 궁동로 29,전북 익산시 영등동 813,35.9623376372,126.9739486739,전라북도 익산시청,익산경찰서,Y,,,2021-03-17,4680000,전라북도 익산시,전라북도
유치원,이리백제초등학교병설유치원,전라북도 익산시 궁동로 29,전북 익산시 영등동 813,35.9623376372,126.9739486739,전라북도 익산시청,익산경찰서,Y,,,2021-03-17,4680000,전라북도 익산시,전라북도
초등학교,이리마한초등학교,전라북도 익산시 무왕로17길 47,전북 익산시 영등동 817,35.9623854449,126.9787332365,전라북도 익산시청,익산경찰서,Y,,,2021-03-17,4680000,전라북도 익산시,전라북도
유치원,이리마한초등학교병설유치원,전라북도 익산시 무왕로17길 47,전북 익산시 영등동 817,35.9623854449,126.9787332365,전라북도 익산시청,익산경찰서,Y,,,2021-03-17,4680000,전라북도 익산시,전라북도
초등학교,익산어양초등학교,전라북도 익산시 하나로10길 23,전북 익산시 어양동 692,35.9616255292,126.9833583404,전라북도 익산시청,익산경찰서,Y,,,2021-03-17,4680000,전라북도 익산시,전라북도
초등학교,익산궁동초등학교,전라북도 익산시 무왕로25길 26,전북 익산시 부송동 1119,35.9623763599,126.9939117466,전라북도 익산시청,익산경찰서,Y,,,2021-03-17,4680000,전라북도 익산시,전라북도
초등학교,이리동북초등학교,전라북도 익산시 고봉로 190-3,전북 익산시 영등동 260-5,35.9491278977,126.9690628276,전라북도 익산시청,익산경찰서,Y,,,2021-03-17,4680000,전라북도 익산시,전라북도
유치원,이리동북초등학교병설유치원,전라북도 익산시 고봉로 190-3,전북 익산시 영등동 260-5,35.9491278977,126.9690628276,전라북도 익산시청,익산경찰서,Y,,,2021-03-17,4680000,전라북도 익산시,전라북도
초등학교,이리중앙초등학교,전라북도 익산시 인북로 77,전북 익산시 갈산동 47,35.9356788995,126.9508715127,전라북도 익산시청,익산경찰서,Y,,,2021-03-17,4680000,전라북도 익산시,전라북도
유치원,이리중앙초등학교병설유치원,전라북도 익산시 인북로 77,전북 익산시 갈산동 47,35.9356788995,126.9508715127,전라북도 익산시청,익산경찰서,Y,,,2021-03-17,4680000,전라북도 익산시,전라북도
초등학교,이리계문초등학교,전라북도 익산시 계문길 79-8,전북 익산시 신용동 670-2,35.9736567928,126.9442256863,전라북도 익산시청,익산경찰서,Y,,,2021-03-17,4680000,전라북도 익산시,전라북도
초등학교,성당초등학교,전라북도 익산시 성당면 성당로 354-16,전북 익산시 성당면 갈산리 615-1,36.1000013957,126.9262098808,전라북도 익산시청,익산경찰서,Y,,,2021-03-17,4680000,전라북도 익산시,전라북도
유치원,성당초등학교병설유치원,전라북도 익산시 성당면 성당로 354-16,전북 익산시 성당면 갈산리 615-1,36.1000013957,126.9262098808,전라북도 익산시청,익산경찰서,Y,,,2021-03-17,4680000,전라북도 익산시,전라북도
초등학교,세광학교,광주광역시 서구 유덕로 177,광주 서구 덕흥동 953-2,35.16844826,126.8360321,광주광역시 서구,서부경찰서,Y,1,8,2021-03-24,3600000,광주광역시 서구,광주광역시
초등학교,송학초교,광주광역시 서구 눌재로 408,광주 서구 세하동 532,35.11304639,126.8303557,광주광역시 서구,서부경찰서,Y,1,10,2021-03-24,3600000,광주광역시 서구,광주광역시
초등학교,신암초교,광주광역시 서구 풍암2로 56,광주 서구 풍암동 1094,35.12295313,126.8809278,광주광역시 서구,서부경찰서,Y,2,15,2021-03-24,3600000,광주광역시 서구,광주광역시
초등학교,양동초교,광주광역시 서구 경열로121번길 5,광주 서구 양동 295,35.154427,126.8989117,광주광역시 서구,서부경찰서,Y,2,6,2021-03-24,3600000,광주광역시 서구,광주광역시
초등학교,염주초교,광주광역시 서구 염화로134번길 28,광주 서구 화정동 850,35.141088,126.8787902,광주광역시 서구,서부경찰서,Y,1,8,2021-03-24,3600000,광주광역시 서구,광주광역시
초등학교,운리초교,광주광역시 서구 풍암운리로23번길 5,광주 서구 풍암동 950,35.12342043,126.865795,광주광역시 서구,서부경찰서,Y,2,6,2021-03-24,3600000,광주광역시 서구,광주광역시
초등학교,운천초교,광주광역시 서구 치평로 59,광주 서구 치평동 1168-6,35.1527359,126.8467487,광주광역시 서구,서부경찰서,Y,2,20,2021-03-24,3600000,광주광역시 서구,광주광역시
초등학교,월광기독학교,광주광역시 서구 염화로 23-20,광주 서구 화정동 425-6,35.13680584,126.8709072,광주광역시 서구,서부경찰서,N,0,15,2021-03-24,3600000,광주광역시 서구,광주광역시
초등학교,유덕초교,광주광역시 서구 상무버들로16번길 6-10,광주 서구 유촌동 873-1,35.16508164,126.8628256,광주광역시 서구,서부경찰서,Y,2,6,2021-03-24,3600000,광주광역시 서구,광주광역시
초등학교,유촌초교,광주광역시 서구 내방로 153,광주 서구 쌍촌동 1320-2,35.15914149,126.857958,광주광역시 서구,서부경찰서,Y,2,6,2021-03-24,3600000,광주광역시 서구,광주광역시
초등학교,주월초교,광주광역시 서구 화운로 36,광주 서구 화정동 1325,35.14470394,126.8837449,광주광역시 서구,서부경찰서,Y,1,8,2021-03-24,3600000,광주광역시 서구,광주광역시
초등학교,치평초교,광주광역시 서구 마재로 27,광주 서구 금호동 788,35.13093467,126.8629839,광주광역시 서구,서부경찰서,Y,1,25,2021-03-24,3600000,광주광역시 서구,광주광역시
초등학교,풍암초교,광주광역시 서구 풍암중앙로 8,광주 서구 풍암동 1050,35.1233747,126.8752136,광주광역시 서구,서부경찰서,Y,2,6,2021-03-24,3600000,광주광역시 서구,광주광역시
초등학교,화개초교,광주광역시 서구 화개중앙로 48,광주 서구 금호동 820,35.12519508,126.8569901,광주광역시 서구,서부경찰서,Y,2,20,2021-03-24,3600000,광주광역시 서구,광주광역시
초등학교,화정남초교,광주광역시 서구 염화로 37,광주 서구 화정동 929-1,35.13785579,126.8716276,광주광역시 서구,서부경찰서,Y,2,15,2021-03-24,3600000,광주광역시 서구,광주광역시
초등학교,화정초교,광주광역시 서구 월드컵4강로146번길 10,광주 서구 화정동 328-3,35.14878795,126.8720581,광주광역시 서구,서부경찰서,Y,3,6,2021-03-24,3600000,광주광역시 서구,광주광역시
초등학교,효광초교,광주광역시 서구 천변좌하로626번길 23-1,광주 서구 광천동 668-5,35.16676905,126.8794107,광주광역시 서구,서부경찰서,Y,1,6,2021-03-24,3600000,광주광역시 서구,광주광역시
유치원,성북초등학교병설유치원,전라북도 익산시 망성면 신작길 17-5,전북 익산시 망성면 신작리 868,36.1465224012,127.0081046390,전라북도 익산시청,익산경찰서,Y,,,2021-03-17,4680000,전라북도 익산시,전라북도
초등학교,광주서초교,광주광역시 서구 화운로194번길 6,광주 서구 화정동 71-3,35.15538527,126.8775452,광주광역시 서구,서부경찰서,Y,1,8,2021-03-24,3600000,광주광역시 서구,광주광역시
초등학교,광천초교,광주광역시 서구 월산로 266,광주 서구 농성동 438,35.15906639,126.8897172,광주광역시 서구,서부경찰서,Y,1,6,2021-03-24,3600000,광주광역시 서구,광주광역시
초등학교,극락초교,광주광역시 서구 칠성로4번길 7,광주 서구 유촌동 861-8,35.16554868,126.8574815,광주광역시 서구,서부경찰서,Y,2,6,2021-03-24,3600000,광주광역시 서구,광주광역시
초등학교,금당초교,광주광역시 서구 풍암중앙로 83,광주 서구 풍암동 1141,35.1270857,126.8829757,광주광역시 서구,서부경찰서,Y,3,6,2021-03-24,3600000,광주광역시 서구,광주광역시
초등학교,금부초교,광주광역시 서구 금화로115번길 22,광주 서구 금호동 768,35.1350014,126.8617085,광주광역시 서구,서부경찰서,Y,2,15,2021-03-24,3600000,광주광역시 서구,광주광역시
초등학교,금호초교,광주광역시 서구 금부로95번길 26-11,광주 서구 쌍촌동 1249,35.1428634,126.8591369,광주광역시 서구,서부경찰서,Y,2,10,2021-03-24,3600000,광주광역시 서구,광주광역시
초등학교,마재초교,광주광역시 서구 마재로 27,광주 서구 금호동 788,35.13093467,126.8629839,광주광역시 서구,서부경찰서,Y,2,15,2021-03-24,3600000,광주광역시 서구,광주광역시
초등학교,만호초교,광주광역시 서구 금화로 53,광주 서구 금호동 244-16,35.1327921,126.8542382,광주광역시 서구,서부경찰서,Y,1,12,2021-03-24,3600000,광주광역시 서구,광주광역시
초등학교,빛고을초교,광주광역시 서구 동천로 7,광주 서구 동천동 507,35.16934636,126.8592488,광주광역시 서구,서부경찰서,Y,2,15,2021-03-24,3600000,광주광역시 서구,광주광역시
초등학교,살레시오초교,광주광역시 서구 전평길 40,광주 서구 매월동 525,35.1180613,126.8488847,광주광역시 서구,서부경찰서,Y,1,10,2021-03-24,3600000,광주광역시 서구,광주광역시
초등학교,상무초교,광주광역시 서구 금호운천길 67,광주 서구 금호동 446-2,35.14097539,126.855604,광주광역시 서구,서부경찰서,Y,2,10,2021-03-24,3600000,광주광역시 서구,광주광역시
초등학교,서광초교,광주광역시 서구 상무오월로38번길 36,광주 서구 쌍촌동 362-7,35.15481887,126.864517,광주광역시 서구,서부경찰서,Y,2,6,2021-03-24,3600000,광주광역시 서구,광주광역시
초등학교,성진초교,광주광역시 서구 학생독립로 16,광주 서구 화정동 904-1,35.14337061,126.8662688,광주광역시 서구,서부경찰서,Y,2,6,2021-03-24,3600000,광주광역시 서구,광주광역시
유치원,화개초병설유치원,광주광역시 서구 화개중앙로 48,광주 서구 금호동 820,35.12519508,126.8569901,광주광역시 서구,서부경찰서,N,0,20,2021-03-24,3600000,광주광역시 서구,광주광역시
유치원,화정초병설유치원,광주광역시 서구 월드컵4강로146번길 10,광주 서구 화정동 328-3,35.14878795,126.8720581,광주광역시 서구,서부경찰서,Y,2,6,2021-03-24,3600000,광주광역시 서구,광주광역시
유치원,효광초병설유치원,광주광역시 서구 천변좌하로626번길 23-1,광주 서구 광천동 668-5,35.16679639,126.8797097,광주광역시 서구,서부경찰서,N,0,6,2021-03-24,3600000,광주광역시 서구,광주광역시
초등학교,계수초교,광주광역시 서구 상무시민로 51,광주 서구 치평동 1166-6,35.15623703,126.8445206,광주광역시 서구,서부경찰서,Y,3,35,2021-03-24,3600000,광주광역시 서구,광주광역시
초등학교,광림초교,광주광역시 서구 하남대로710번길 19,광주 서구 동천동 659,35.16944947,126.8708974,광주광역시 서구,서부경찰서,Y,1,25,2021-03-24,3600000,광주광역시 서구,광주광역시
어린이집,에벤에셀어린이집,전라남도 광양시 광양읍 신재로 82,전남 광양시 광양읍 목성리 976-4,34.978328,127.588869,광양시,광양경찰서,Y,3,5 ~ 10,2020-09-28,4840000,전라남도 광양시,전라남도
유치원,현화프라임 유치원,경기도 평택시 안중읍 안중로8번길 44,경기 평택시 안중읍 현화리 857-1,36.982434,126.9275946,경기도 평택시청,평택경찰서,Y,1,,2020-04-28,3910000,경기도 평택시,경기도
초등학교,성북초등학교,전라북도 익산시 망성면 신작길 17-5,전북 익산시 망성면 신작리 868,36.1465224012,127.0081046390,전라북도 익산시청,익산경찰서,Y,,,2021-03-17,4680000,전라북도 익산시,전라북도
유치원,청안초등학교 병설유치원,충청북도 괴산군 청안면 청안읍내로3길 8,충북 괴산군 청안면 읍내리 221-1,36.77254628,127.6398179,충청북도 괴산군,괴산경찰서,Y,1,,2021-06-28,4460000,충청북도 괴산군,충청북도
유치원,송면초등학교 병설유치원,충청북도 괴산군 청천면 송면2길 13,충북 괴산군 청천면 송면리 119,36.67445354,127.8627684,충청북도 괴산군,괴산경찰서,Y,1,,2021-06-28,4460000,충청북도 괴산군,충청북도
유치원,추산초등학교 병설유치원,충청북도 괴산군 불정면 동추산길 1,충북 괴산군 불정면 추산리 575-1,36.90276489,127.8177032,충청북도 괴산군,괴산경찰서,Y,1,,2021-06-28,4460000,충청북도 괴산군,충청북도
초등학교,청안초등학교,충청북도 괴산군 청안면 청안읍내로3길 8,충북 괴산군 청안면 읍내리 221-1,36.77254628,127.6398179,충청북도 괴산군,괴산경찰서,Y,1,,2021-06-28,4460000,충청북도 괴산군,충청북도
초등학교,송면초등학교,충청북도 괴산군 청천면 송면2길 13,충북 괴산군 청천면 송면리 119,36.67445354,127.8627684,충청북도 괴산군,괴산경찰서,Y,1,,2021-06-28,4460000,충청북도 괴산군,충청북도
초등학교,추산초등학교,충청북도 괴산군 불정면 동추산길 1,충북 괴산군 불정면 추산리 575-1,36.90276489,127.8177032,충청북도 괴산군,괴산경찰서,Y,1,,2021-06-28,4460000,충청북도 괴산군,충청북도
초등학교,미양초등학교,경기도 안성시 미양면 양지길 40,경기 안성시 미양면 양지리 201,36.97502094,127.2127608,경기도 안성시,안성경찰서,Y,1,10,2021-03-15,4080000,경기도 안성시,경기도
초등학교,마전초등학교,경기도 안성시 삼죽면 서동대로 5915,경기 안성시 삼죽면 마전리 37-1,37.03070664,127.3413414,경기도 안성시,안성경찰서,Y,1,21,2021-03-15,4080000,경기도 안성시,경기도
초등학교,공도초등학교,경기도 안성시 공도읍 공도1로 9,경기 안성시 공도읍 용두리 187-1,36.9999994,127.1674701,경기도 안성시,안성경찰서,Y,1,10,2021-03-15,4080000,경기도 안성시,경기도
초등학교,방초초등학교,경기도 안성시 일죽면 사실로 86,경기 안성시 일죽면 방초리 459-2,37.11983727,127.4337383,경기도 안성시,안성경찰서,Y,1,9,2021-03-15,4080000,경기도 안성시,경기도
어린이집,백합어린이집,광주광역시 동구 지원로 27,광주 동구 소태동 447-4,35.124464,126.935391,광주광역시 동구청,광주광역시 동부경찰서,Y,1,7,2021-04-06,3590000,광주광역시 동구,광주광역시
초등학교,미곡초등학교,경기도 안성시 양성면 안성맞춤대로 2304-9,경기 안성시 양성면 노곡리 443,37.11067482,127.2450334,경기도 안성시,안성경찰서,Y,2,8,2021-03-15,4080000,경기도 안성시,경기도
유치원,혜윰유치원,경기도 안성시 대덕면 중앙로 110-4,경기 안성시 대덕면 건지리 462-1,37.0120793,127.2408243,경기도 안성시,안성경찰서,N,0,5,2021-03-15,4080000,경기도 안성시,경기도
유치원,뜨란키즈유치원,경기도 안성시 보개면 문화예술로 262,경기 안성시 보개면 복평리 69-1,37.03524531,127.3122377,경기도 안성시,안성경찰서,N,1,12,2021-03-15,4080000,경기도 안성시,경기도
유치원,유앤아이킨더가르텐,경기도 안성시 공도읍 효자비길 43-3,경기 안성시 공도읍 승두리 831-1,36.9939359,127.1749124998,경기도 안성시,안성경찰서,N,0,5,2021-03-15,4080000,경기도 안성시,경기도
유치원,금마초등학교병설유치원,전라북도 익산시 금마면 금마4길 38,전북 익산시 금마면 동고도리 155,35.9910677092,127.0559199757,전라북도 익산시청,익산경찰서,Y,,,2021-03-17,4680000,전라북도 익산시,전라북도
초등학교,여산초등학교,전라북도 익산시 여산면 동헌길 14,전북 익산시 여산면 여산리 490,36.0585769472,127.0876745325,전라북도 익산시청,익산경찰서,Y,,,2021-03-17,4680000,전라북도 익산시,전라북도
유치원,여산초등학교병설유치원,전라북도 익산시 여산면 동헌길 14,전북 익산시 여산면 여산리 490,36.0585769472,127.0876745325,전라북도 익산시청,익산경찰서,Y,,,2021-03-17,4680000,전라북도 익산시,전라북도
초등학교,왕궁초등학교,전라북도 익산시 왕궁면 견우길 3,전북 익산시 왕궁면 흥암리 150,35.9663272312,127.0898835809,전라북도 익산시청,익산경찰서,Y,,,2021-03-17,4680000,전라북도 익산시,전라북도
유치원,왕궁초등학교병설유치원,전라북도 익산시 왕궁면 견우길 3,전북 익산시 왕궁면 흥암리 150,35.9663272312,127.0898835809,전라북도 익산시청,익산경찰서,Y,,,2021-03-17,4680000,전라북도 익산시,전라북도
초등학교,왕궁남초등학교,전라북도 익산시 왕궁면 학호길 12,전북 익산시 왕궁면 온수리 202-4,35.9270633,127.0755188349,전라북도 익산시청,익산경찰서,Y,,,2021-03-17,4680000,전라북도 익산시,전라북도
유치원,왕궁남초등학교병설유치원,전라북도 익산시 왕궁면 학호길 12,전북 익산시 왕궁면 온수리 202-4,35.9270633,127.0755188349,전라북도 익산시청,익산경찰서,Y,,,2021-03-17,4680000,전라북도 익산시,전라북도
초등학교,오산초등학교,전라북도 익산시 오산면 오산로 38,전북 익산시 오산면 오산리 25-1,35.9419038085,126.9158496255,전라북도 익산시청,익산경찰서,Y,,,2021-03-17,4680000,전라북도 익산시,전라북도
유치원,오산초등학교병설유치원,전라북도 익산시 오산면 오산로 38,전북 익산시 오산면 오산리 25-1,35.9419038085,126.9158496255,전라북도 익산시청,익산경찰서,Y,,,2021-03-17,4680000,전라북도 익산시,전라북도
초등학교,이리초등학교,전라북도 익산시 중앙로15길 20,전북 익산시 마동 260-2,35.9386634048,126.9594163841,전라북도 익산시청,익산경찰서,Y,,,2021-03-17,4680000,전라북도 익산시,전라북도
유치원,이리초등학교병설유치원,전라북도 익산시 중앙로15길 20,전북 익산시 마동 260-2,35.9386634048,126.9594163841,전라북도 익산시청,익산경찰서,Y,,,2021-03-17,4680000,전라북도 익산시,전라북도
초등학교,이리동남초등학교,전라북도 익산시 동천로7길 18,전북 익산시 동산동 140-1,35.9313197543,126.9707098051,전라북도 익산시청,익산경찰서,Y,,,2021-03-17,4680000,전라북도 익산시,전라북도
유치원,이리동남초등학교병설유치원,전라북도 익산시 동천로7길 18,전북 익산시 동산동 140-1,35.9313197543,126.9707098051,전라북도 익산시청,익산경찰서,Y,,,2021-03-17,4680000,전라북도 익산시,전라북도
초등학교,왕북초등학교,전라북도 익산시 왕궁면 금광길54-12,전북 익산시 왕궁면 동용리 643,35.9910153208,127.1040757572,전라북도 익산시청,익산경찰서,Y,,,2021-03-17,4680000,전라북도 익산시,전라북도
유치원,왕북초등학교병설유치원,전라북도 익산시 왕궁면 금광길54-12,전북 익산시 왕궁면 동용리 643,35.9910153208,127.1040757572,전라북도 익산시청,익산경찰서,Y,,,2021-03-17,4680000,전라북도 익산시,전라북도
유치원,성모유치원,경기도 안성시 미양면 마산길 5,경기 안성시 미양면 양지리 168,36.97513642,127.216665,경기도 안성시,안성경찰서,Y,1,8,2021-03-15,4080000,경기도 안성시,경기도
초등학교,동신초등학교,경기도 안성시 보개면 사갑뜰길 6,경기 안성시 보개면 동신리 229-2,37.01227297,127.3047367,경기도 안성시,안성경찰서,Y,1,3,2021-03-15,4080000,경기도 안성시,경기도
초등학교,가율분교,경기도 안성시 보개면 보개원삼로 649,경기 안성시 보개면 이전리 347-2,37.06022548,127.2958033,경기도 안성시,안성경찰서,Y,1,15,2021-03-15,4080000,경기도 안성시,경기도
초등학교,명덕초등학교,경기도 안성시 대덕면 미륵로 16,경기 안성시 대덕면 진현리 285-1,37.05071246,127.2626747,경기도 안성시,안성경찰서,Y,1,15,2021-03-15,4080000,경기도 안성시,경기도
초등학교,백성초등학교,경기도 안성시 백성2길 59,경기 안성시 금산동 119,37.01117169,127.266624,경기도 안성시,안성경찰서,Y,2,15,2021-03-15,4080000,경기도 안성시,경기도
유치원,공도초교병설유치원,경기도 안성시 공도읍 공도1로 9,경기 안성시 공도읍 용두리 187-1,36.9999994,127.1674701,경기도 안성시,안성경찰서,Y,1,10,2021-03-15,4080000,경기도 안성시,경기도
초등학교,용머리초등학교,경기도 안성시 공도읍 기업단지로 61,경기 안성시 공도읍 용두리 516,37.0027461,127.1594454,경기도 안성시,안성경찰서,Y,1,7,2021-03-15,4080000,경기도 안성시,경기도
초등학교,죽산초등학교,경기도 안성시 죽산면 죽산초교길 43,경기 안성시 죽산면 죽산리 405-2,37.07847698,127.4211905,경기도 안성시,안성경찰서,Y,1,20,2021-03-15,4080000,경기도 안성시,경기도
초등학교,문기초등학교,경기도 안성시 공도읍 서동대로 4424,경기 안성시 공도읍 양기리 332-25,37.0075986645,127.1935952384,경기도 안성시,안성경찰서,Y,2,20,2021-03-15,4080000,경기도 안성시,경기도
유치원,창촌초등학교 병설유치원,전라남도 순천시 주암면 창동주암길 3,전남 순천시 주암면 창촌리 275,35.06040641,127.2772953,전라남도 순천시청,순천경찰서,Y,4,9,2021-03-15,4820000,전라남도 순천시,전라남도
유치원,외서초등학교 병설유치원,전라남도 순천시 외서면 반월로 6,전남 순천시 외서면 월암리 161-11,34.91607038,127.2739419,전라남도 순천시청,순천경찰서,Y,4,9,2021-03-15,4820000,전라남도 순천시,전라남도
유치원,해나라유치원,전라남도 순천시 장선배기길 55,전남 순천시 조례동 1610,34.9547307,127.5296278,전라남도 순천시청,순천경찰서,Y,2,8,2021-03-15,4820000,전라남도 순천시,전라남도
유치원,장미유치원,전라남도 순천시 연향1로 40,전남 순천시 연향동 1387,34.9447183,127.5195843,전라남도 순천시청,순천경찰서,N,0,9,2021-03-15,4820000,전라남도 순천시,전라남도
유치원,낙안초등학교 병설유치원,전라남도 순천시 낙안면 동서길 20,전남 순천시 낙안면 성북리 312,34.9092054,127.3428726,전라남도 순천시청,순천경찰서,Y,2,9,2021-03-15,4820000,전라남도 순천시,전라남도
유치원,팔마초등학교 병설유치원,전라남도 순천시 해룡면 장선배기길 113,전남 순천시 해룡면 상삼리 621,34.95013068,127.5311396,전라남도 순천시청,순천경찰서,Y,2,9,2021-03-15,4820000,전라남도 순천시,전라남도
유치원,왕지초등학교 병설유치원,전라남도 순천시 연동남3길 8,전남 순천시 조례동 1811,34.95705323,127.5344337,전라남도 순천시청,순천경찰서,Y,6,9,2021-03-15,4820000,전라남도 순천시,전라남도
유치원,대석초등학교 병설유치원,전라남도 순천시 기적의도서관2길 52,전남 순천시 연향동 1516,34.9434515,127.5257458,전라남도 순천시청,순천경찰서,Y,4,9,2021-03-15,4820000,전라남도 순천시,전라남도
유치원,봉화초등학교 병설유치원,전라남도 순천시 봉화1길 57,전남 순천시 조례동 1384,34.9566731,127.5139052,전라남도 순천시청,순천경찰서,Y,2,9,2021-03-15,4820000,전라남도 순천시,전라남도
유치원,승주초등학교 병설죽학분교장유치원,전라남도 순천시 승주읍 선암사길 280,전남 순천시 승주읍 죽학리 71-4,34.99101391,127.3625215,전라남도 순천시청,순천경찰서,Y,2,9,2021-03-15,4820000,전라남도 순천시,전라남도
유치원,상사초등학교 병설유치원,전라남도 순천시 상사면 상사초등길 55,전남 순천시 상사면 응령리 287,34.94379076,127.4453773,전라남도 순천시청,순천경찰서,Y,2,9,2021-03-15,4820000,전라남도 순천시,전라남도
유치원,조례초등학교 병설유치원,전라남도 순천시 순광로 15,전남 순천시 조례동 487-2,34.95606324,127.5224805,전라남도 순천시청,순천경찰서,Y,8,9,2021-03-15,4820000,전라남도 순천시,전라남도
유치원,비봉초등학교 병설유치원,전라남도 순천시 비봉길 90,전남 순천시 조례동 822,34.96653156,127.5187465,전라남도 순천시청,순천경찰서,Y,3,9,2021-03-15,4820000,전라남도 순천시,전라남도
유치원,풍덕초등학교 병설유치원,전라남도 순천시 팔마1길 9-10,전남 순천시 연향동 1661,34.93360933,127.5125207,전라남도 순천시청,순천경찰서,Y,5,9,2021-03-15,4820000,전라남도 순천시,전라남도
유치원,왕운초등학교 병설유치원,전라남도 순천시 왕지3길 41,전남 순천시 왕지동 787,34.9738309,127.5253159,전라남도 순천시청,순천경찰서,Y,4,9,2021-03-15,4820000,전라남도 순천시,전라남도
유치원,낙안초등학교 병설유치원,전라남도 순천시 낙안면 동서길 20,전남 순천시 낙안면 성북리 312,34.9092054,127.3428726,전라남도 순천시청,순천경찰서,Y,2,9,2021-03-15,4820000,전라남도 순천시,전라남도
유치원,팔마초등학교 병설유치원,전라남도 순천시 해룡면 장선배기길 113,전남 순천시 해룡면 상삼리 621,34.95013068,127.5311396,전라남도 순천시청,순천경찰서,Y,2,9,2021-03-15,4820000,전라남도 순천시,전라남도
유치원,왕지초등학교 병설유치원,전라남도 순천시 연동남3길 8,전남 순천시 조례동 1811,34.95705323,127.5344337,전라남도 순천시청,순천경찰서,Y,6,9,2021-03-15,4820000,전라남도 순천시,전라남도
유치원,대석초등학교 병설유치원,전라남도 순천시 기적의도서관2길 52,전남 순천시 연향동 1516,34.9434515,127.5257458,전라남도 순천시청,순천경찰서,Y,4,9,2021-03-15,4820000,전라남도 순천시,전라남도
유치원,봉화초등학교 병설유치원,전라남도 순천시 봉화1길 57,전남 순천시 조례동 1384,34.9566731,127.5139052,전라남도 순천시청,순천경찰서,Y,2,9,2021-03-15,4820000,전라남도 순천시,전라남도
유치원,승주초등학교 병설죽학분교장유치원,전라남도 순천시 승주읍 선암사길 280,전남 순천시 승주읍 죽학리 71-4,34.99101391,127.3625215,전라남도 순천시청,순천경찰서,Y,2,9,2021-03-15,4820000,전라남도 순천시,전라남도
유치원,상사초등학교 병설유치원,전라남도 순천시 상사면 상사초등길 55,전남 순천시 상사면 응령리 287,34.94379076,127.4453773,전라남도 순천시청,순천경찰서,Y,2,9,2021-03-15,4820000,전라남도 순천시,전라남도
유치원,조례초등학교 병설유치원,전라남도 순천시 순광로 15,전남 순천시 조례동 487-2,34.95606324,127.5224805,전라남도 순천시청,순천경찰서,Y,8,9,2021-03-15,4820000,전라남도 순천시,전라남도
유치원,비봉초등학교 병설유치원,전라남도 순천시 비봉길 90,전남 순천시 조례동 822,34.96653156,127.5187465,전라남도 순천시청,순천경찰서,Y,3,9,2021-03-15,4820000,전라남도 순천시,전라남도
유치원,풍덕초등학교 병설유치원,전라남도 순천시 팔마1길 9-10,전남 순천시 연향동 1661,34.93360933,127.5125207,전라남도 순천시청,순천경찰서,Y,5,9,2021-03-15,4820000,전라남도 순천시,전라남도
유치원,왕운초등학교 병설유치원,전라남도 순천시 왕지3길 41,전남 순천시 왕지동 787,34.9738309,127.5253159,전라남도 순천시청,순천경찰서,Y,4,9,2021-03-15,4820000,전라남도 순천시,전라남도
유치원,기린숲유치원,전라남도 순천시 해룡면 송산5길 1,전남 순천시 해룡면 신대리 2046-2,34.92674129,127.5474755,전라남도 순천시청,순천경찰서,N,1,9,2021-03-15,4820000,전라남도 순천시,전라남도
유치원,꿈초롱유치원,전라남도 순천시 가곡동 116-1,전남 순천시 가곡동 116-1,34.985615,127.484593,전라남도 순천시청,순천경찰서,N,0,9,2021-03-15,4820000,전라남도 순천시,전라남도
유치원,삼산초등학교 병설유치원,전라남도 순천시 삼산초등길 39,전남 순천시 석현동 24,34.96665798,127.4882663,전라남도 순천시청,순천경찰서,Y,4,9,2021-03-15,4820000,전라남도 순천시,전라남도
유치원,연향초등학교 병설유치원,전라남도 순천시 연향번영길 11,전남 순천시 연향동 1388,34.94370189,127.5169682,전라남도 순천시청,순천경찰서,Y,4,9,2021-03-15,4820000,전라남도 순천시,전라남도
유치원,왕조초등학교 병설유치원,전라남도 순천시 봉화1길 105,전남 순천시 조례동 1669,34.9606826,127.5138646,전라남도 순천시청,순천경찰서,Y,2,9,2021-03-15,4820000,전라남도 순천시,전라남도
유치원,승주초등학교 병설유치원,전라남도 순천시 승주읍 승주로 639,전남 순천시 승주읍 서평리 546-1,35.01722239,127.380163,전라남도 순천시청,순천경찰서,Y,2,9,2021-03-15,4820000,전라남도 순천시,전라남도
유치원,주암초등학교 병설유치원,전라남도 순천시 주암면 동주로 2093,전남 순천시 주암면 구산리 721,35.07682306,127.2396504,전라남도 순천시청,순천경찰서,Y,6,9,2021-03-15,4820000,전라남도 순천시,전라남도
유치원,송광초등학교 병설유치원,전라남도 순천시 송광면 쌍향수길 1169,전남 순천시 송광면 이읍리 751,34.961262,127.2669752,전라남도 순천시청,순천경찰서,Y,6,9,2021-03-15,4820000,전라남도 순천시,전라남도
유치원,별량초등학교 병설유치원,전라남도 순천시 별량면 별량길 58,전남 순천시 별량면 봉림리 158-1,34.8757508,127.4521489,전라남도 순천시청,순천경찰서,Y,2,9,2021-03-15,4820000,전라남도 순천시,전라남도
유치원,신흥초등학교 병설유치원,전라남도 순천시 장선배기길 60,전남 순천시 조례동 1615,34.95395153,127.5280594,전라남도 순천시청,순천경찰서,Y,2,9,2021-03-15,4820000,전라남도 순천시,전라남도
유치원,이수초등학교 병설유치원,전라남도 순천시 우명길 24,전남 순천시 조례동 1283,34.9503121,127.5117201,전라남도 순천시청,순천경찰서,Y,4,9,2021-03-15,4820000,전라남도 순천시,전라남도
유치원,해룡초등학교 병설유치원,전라남도 순천시 해룡면 해룡로 1119,전남 순천시 해룡면 월전리 389-1,34.91265972,127.5355029,전라남도 순천시청,순천경찰서,Y,2,9,2021-03-15,4820000,전라남도 순천시,전라남도
유치원,동산초등학교 병설유치원,전라남도 순천시 서면 순천로 16,전남 순천시 서면 동산리 11,34.99383703,127.4943075,전라남도 순천시청,순천경찰서,Y,8,18,2021-03-15,4820000,전라남도 순천시,전라남도
유치원,황전초등학교 병설유치원,전라남도 순천시 황전면 수평길 21,전남 순천시 황전면 수평리 309-1,35.10107982,127.4301357,전라남도 순천시청,순천경찰서,Y,2,9,2021-03-15,4820000,전라남도 순천시,전라남도
유치원,황전북초등학교 병설유치원,전라남도 순천시 황전면 삽재팔동길 377,전남 순천시 황전면 회룡리 756,35.10847899,127.4957748,전라남도 순천시청,순천경찰서,Y,2,9,2021-03-15,4820000,전라남도 순천시,전라남도
유치원,황전북초등학교 병설회덕분교장유치원,전라남도 순천시 황전면 삽재팔동길 377,전남 순천시 황전면 회룡리 756,35.10847899,127.4957748,전라남도 순천시청,순천경찰서,Y,2,9,2021-03-15,4820000,전라남도 순천시,전라남도
유치원,월등초등학교 병설유치원,전라남도 순천시 월등면 월평2길 21,전남 순천시 월등면 대평리 458,35.092759,127.3778639,전라남도 순천시청,순천경찰서,Y,2,9,2021-03-15,4820000,전라남도 순천시,전라남도
유치원,금부초병설유치원,광주광역시 서구 금화로115번길 22,광주 서구 금호동 768,35.1350014,126.8617085,광주광역시 서구,서부경찰서,N,0,15,2021-03-24,3600000,광주광역시 서구,광주광역시
유치원,금호초병설유치원,광주광역시 서구 금부로95번길 26-11,광주 서구 쌍촌동 1249,35.14272452,126.8598531,광주광역시 서구,서부경찰서,N,0,6,2021-03-24,3600000,광주광역시 서구,광주광역시
유치원,마재초병설유치원,광주광역시 서구 마재로 27,광주 서구 금호동 788,35.13093467,126.8629839,광주광역시 서구,서부경찰서,N,0,15,2021-03-24,3600000,광주광역시 서구,광주광역시
유치원,빛고을유치원,광주광역시 서구 하남대로680번길 27,광주 서구 동천동 649,35.16913318,126.8668056,광주광역시 서구,서부경찰서,Y,2,15,2021-03-24,3600000,광주광역시 서구,광주광역시
유치원,상무초병설유치원,광주광역시 서구 금호운천길 67,광주 서구 금호동 446-2,35.14093006,126.8553792,광주광역시 서구,서부경찰서,N,0,10,2021-03-24,3600000,광주광역시 서구,광주광역시
유치원,성균관유치원,광주광역시 서구 금화로73번길 22,광주 서구 금호동 749-5,35.1342546,126.857425,광주광역시 서구,서부경찰서,N,0,6,2021-03-24,3600000,광주광역시 서구,광주광역시
유치원,세운그림유치원,광주광역시 서구 풍금로38번길 4-11,광주 서구 풍암동 941-8,35.12282675,126.8636447,광주광역시 서구,서부경찰서,Y,1,6,2021-03-24,3600000,광주광역시 서구,광주광역시
유치원,송학초병설유치원,광주광역시 서구 눌재로 408,광주 서구 세하동 532,35.11304639,126.8303557,광주광역시 서구,서부경찰서,N,0,10,2021-03-24,3600000,광주광역시 서구,광주광역시
유치원,신암초병설유치원,광주광역시 서구 풍암2로 56,광주 서구 풍암동 1094,35.12295313,126.8809278,광주광역시 서구,서부경찰서,N,0,15,2021-03-24,3600000,광주광역시 서구,광주광역시
유치원,썸머힐유치원,광주광역시 서구 월드컵4강로28번길 30-1,광주 서구 화정동 400-4,35.14033008,126.8795814,광주광역시 서구,서부경찰서,Y,2,8,2021-03-24,3600000,광주광역시 서구,광주광역시
유치원,아이사랑유치원,광주광역시 서구 쌍촌로36번길 25,광주 서구 쌍촌동 1204,35.14729381,126.8673241,광주광역시 서구,서부경찰서,Y,1,6,2021-03-24,3600000,광주광역시 서구,광주광역시
유치원,아이숲유치원,광주광역시 서구 백석길 38,광주 서구 마륵동 97-79,35.142283,126.853158,광주광역시 서구,서부경찰서,N,0,7.6,2021-03-24,3600000,광주광역시 서구,광주광역시
유치원,아이위드유치원,광주광역시 서구 금호심곡길 5,광주 서구 금호동 341-8,35.134961,126.855352,광주광역시 서구,서부경찰서,N,0,7,2021-03-24,3600000,광주광역시 서구,광주광역시
유치원,양동초병설유치원,광주광역시 서구 경열로121번길 5,광주 서구 양동 295,35.15326871,126.898856,광주광역시 서구,서부경찰서,N,0,6,2021-03-24,3600000,광주광역시 서구,광주광역시
유치원,연세유치원,광주광역시 서구 금호만호길 55,광주 서구 금호동 555,35.13281533,126.8514737,광주광역시 서구,서부경찰서,N,0,10,2021-03-24,3600000,광주광역시 서구,광주광역시
유치원,염주초병설유치원,광주광역시 서구 염화로134번길 28,광주 서구 화정동 850,35.141088,126.8787902,광주광역시 서구,서부경찰서,N,0,8,2021-03-24,3600000,광주광역시 서구,광주광역시
유치원,예닮몬테소리유치원,광주광역시 서구 풍암중앙로91번길 14,광주 서구 풍암동 1166,35.12786801,126.8834507,광주광역시 서구,서부경찰서,Y,2,8,2021-03-24,3600000,광주광역시 서구,광주광역시
유치원,운리초병설유치원,광주광역시 서구 풍암운리로23번길 5,광주 서구 풍암동 950,35.12344674,126.8659311,광주광역시 서구,서부경찰서,N,0,6,2021-03-24,3600000,광주광역시 서구,광주광역시
유치원,운천초병설유치원,광주광역시 서구 치평로 59,광주 서구 치평동 1168-6,35.1527359,126.8467487,광주광역시 서구,서부경찰서,N,0,20,2021-03-24,3600000,광주광역시 서구,광주광역시
유치원,워싱턴유치원,광주광역시 서구 칠성로 21-1,광주 서구 유촌동 3-3,35.16684489,126.8598502,광주광역시 서구,서부경찰서,Y,2,6,2021-03-24,3600000,광주광역시 서구,광주광역시
유치원,유덕초병설유치원,광주광역시 서구 상무버들로16번길 6-10,광주 서구 유촌동 873-1,35.16508164,126.8628256,광주광역시 서구,서부경찰서,N,0,6,2021-03-24,3600000,광주광역시 서구,광주광역시
유치원,유촌초병설유치원,광주광역시 서구 내방로 153,광주 서구 쌍촌동 1320-2,35.15914149,126.857958,광주광역시 서구,서부경찰서,N,0,6,2021-03-24,3600000,광주광역시 서구,광주광역시
유치원,창의유치원,광주광역시 서구 치평로 112,광주 서구 치평동 1187-3,35.1572853,126.8476752,광주광역시 서구,서부경찰서,N,0,20,2021-03-24,3600000,광주광역시 서구,광주광역시
유치원,치평초병설유치원,광주광역시 서구 마재로 27,광주 서구 금호동 788,35.13074895,126.862943,광주광역시 서구,서부경찰서,N,0,25,2021-03-24,3600000,광주광역시 서구,광주광역시
유치원,큰별 유치원,광주광역시 서구 염화로104번길 25,광주 서구 화정동 854,35.14032744,126.8769588,광주광역시 서구,서부경찰서,Y,2,6,2021-03-24,3600000,광주광역시 서구,광주광역시
유치원,펀키즈유치원,광주광역시 서구 금호운천길 58-10,광주 서구 금호동 442-1,35.14031505,126.8574267,광주광역시 서구,서부경찰서,Y,2,6,2021-03-24,3600000,광주광역시 서구,광주광역시
유치원,풍암초병설유치원,광주광역시 서구 풍암중앙로 8,광주 서구 풍암동 1050,35.1233747,126.8752136,광주광역시 서구,서부경찰서,N,0,6,2021-03-24,3600000,광주광역시 서구,광주광역시
유치원,해빛나유치원,광주광역시 서구 화운로 24,광주 서구 화정동 1612,35.14250664,126.886536,광주광역시 서구,서부경찰서,N,0,10,2021-03-24,3600000,광주광역시 서구,광주광역시
유치원,현대리나유치원,광주광역시 서구 칠성로69번길 12,광주 서구 쌍촌동 1040,35.16687777,126.8649872,광주광역시 서구,서부경찰서,Y,1,8,2021-03-24,3600000,광주광역시 서구,광주광역시
유치원,홉스쿨 유치원,광주광역시 서구 금화로 41,광주 서구 금호동 281-1,35.13253175,126.8536111,광주광역시 서구,서부경찰서,N,0,10,2021-03-24,3600000,광주광역시 서구,광주광역시
어린이집,안데르센어린이집,전라남도 광양시 광장로 112-20,전남 광양시 중동 1686,34.933678,127.696673,광양시,광양경찰서,Y,2,5 ~ 10,2020-09-28,4840000,전라남도 광양시,전라남도
유치원,계수초병설유치원,광주광역시 서구 상무시민로 51,광주 서구 치평동 1166-6,35.15623703,126.8445206,광주광역시 서구,서부경찰서,N,0,35,2021-03-24,3600000,광주광역시 서구,광주광역시
유치원,광천초병설유치원,광주광역시 서구 월산로 266,광주 서구 농성동 438,35.15935646,126.8900241,광주광역시 서구,서부경찰서,N,0,6,2021-03-24,3600000,광주광역시 서구,광주광역시
유치원,극락초병설유치원,광주광역시 서구 칠성로4번길 7,광주 서구 유촌동 861-8,35.16608704,126.8573077,광주광역시 서구,서부경찰서,N,0,6,2021-03-24,3600000,광주광역시 서구,광주광역시
유치원,금당초병설유치원,광주광역시 서구 풍암중앙로 83,광주 서구 풍암동 1141,35.1270857,126.8829757,광주광역시 서구,서부경찰서,N,0,6,2021-03-24,3600000,광주광역시 서구,광주광역시
어린이집,예능어린이집,전라남도 광양시 광양읍 신재로 82,전남 광양시 광양읍 목성리 976-4,34.978328,127.588869,광양시,광양경찰서,N,,5 ~ 10,2020-09-28,4840000,전라남도 광양시,전라남도
유치원,율산유치원,전라남도 순천시 도장길 10,전남 순천시 연향동 1605-4,34.94041147,127.5258796,전라남도 순천시청,순천경찰서,Y,4,6,2021-03-15,4820000,전라남도 순천시,전라남도
유치원,어린양유치원,전라남도 순천시 연향로 22,전남 순천시 연향동 1400-11,34.9429815,127.5159566,전라남도 순천시청,순천경찰서,Y,2,6,2021-03-15,4820000,전라남도 순천시,전라남도
유치원,글로벌유치원,전라남도 순천시 덕연로 45,전남 순천시 연향동 1239-5,34.9484591,127.511156,전라남도 순천시청,순천경찰서,Y,4,7,2021-03-15,4820000,전라남도 순천시,전라남도
유치원,새싹유치원,전라남도 순천시 강변로 943,전남 순천시 석현동 146-1,34.96902787,127.4879988,전라남도 순천시청,순천경찰서,N,0,7,2021-03-15,4820000,전라남도 순천시,전라남도
유치원,남초등학교 병설유치원,전라남도 순천시 서문로 7,전남 순천시 저전동 90-3,34.95083261,127.4825505,전라남도 순천시청,순천경찰서,Y,2,9,2021-03-15,4820000,전라남도 순천시,전라남도
유치원,북초등학교 병설유치원,전라남도 순천시 북정2길 20,전남 순천시 매곡동 425-1,34.96464302,127.4839928,전라남도 순천시청,순천경찰서,Y,4,9,2021-03-15,4820000,전라남도 순천시,전라남도
유치원,성남초등학교 병설유치원,전라남도 순천시 우석로 160,전남 순천시 남정동 525,34.94242338,127.489642,전라남도 순천시청,순천경찰서,Y,2,6,2021-03-15,4820000,전라남도 순천시,전라남도
유치원,성동초등학교 병설유치원,전라남도 순천시 황금2길 28,전남 순천시 동외동 78,34.95433354,127.4866693,전라남도 순천시청,순천경찰서,Y,2,4,2021-03-15,4820000,전라남도 순천시,전라남도
유치원,남산초등학교 병설유치원,전라남도 순천시 풍덕새길 89,전남 순천시 풍덕동 1102-18,34.93854586,127.4953678,전라남도 순천시청,순천경찰서,Y,2,9,2021-03-15,4820000,전라남도 순천시,전라남도
유치원,동명초등학교 병설유치원,전라남도 순천시 해룡면 동명초등길 23,전남 순천시 해룡면 상삼리 634,34.9480239,127.5271898,전라남도 순천시청,순천경찰서,Y,2,9,2021-03-15,4820000,전라남도 순천시,전라남도
어린이집,햇살좋은어린이집,광주광역시 동구 운림길 51,광주 동구 운림동 568-4,35.135506,126.942896,광주광역시 동구청,광주광역시 동부경찰서,N,2,7,2021-04-06,3590000,광주광역시 동구,광주광역시
유치원,부영초등학교 병설유치원,전라남도 순천시 연향중앙상가길 68,전남 순천시 연향동 1380,34.94685134,127.5199174,전라남도 순천시청,순천경찰서,Y,2,7,2021-03-15,4820000,전라남도 순천시,전라남도
유치원,중앙초등학교 병설유치원,전라남도 순천시 중앙초등길 64,전남 순천시 풍덕동 889-12,34.94253345,127.5006724,전라남도 순천시청,순천경찰서,Y,2,9,2021-03-15,4820000,전라남도 순천시,전라남도
유치원,도사초등학교 병설유치원,전라남도 순천시 순천만길 166,전남 순천시 홍내동 637-3,34.9138432,127.5002293,전라남도 순천시청,순천경찰서,Y,2,9,2021-03-15,4820000,전라남도 순천시,전라남도
어린이집,어린양어린이집,전라남도 순천시 연향로 20,전남 순천시 연향동 1400-8,34.9430477,127.5155631,전라남도 순천시청,순천경찰서,Y,2,6,2021-03-15,4820000,전라남도 순천시,전라남도
어린이집,네버랜드어린이집,전라남도 순천시 왕지로 187,전남 순천시 왕지동 162,34.9770831,127.5392873,전라남도 순천시청,순천경찰서,Y,2,6,2021-03-15,4820000,전라남도 순천시,전라남도
어린이집,숲속어린이집,전라남도 순천시 충숙길 42,전남 순천시 용당동 80-2,34.9789252,127.5010884,전라남도 순천시청,순천경찰서,Y,2,6,2021-03-15,4820000,전라남도 순천시,전라남도
어린이집,아림킨더하우스어린이집,전라남도 순천시 왕지로 153,전남 순천시 왕지동 402-10,34.9759382,127.5357609,전라남도 순천시청,순천경찰서,Y,2,6,2021-03-15,4820000,전라남도 순천시,전라남도
어린이집,엄지어린이집,전라남도 순천시 장평5길 55,전남 순천시 풍덕동 1290-4,34.9404306,127.4952711,전라남도 순천시청,순천경찰서,Y,2,6,2021-03-15,4820000,전라남도 순천시,전라남도
어린이집,자람어린이집,전라남도 순천시 비봉길 21,전남 순천시 조례동 1735-6,34.9702589,127.5205822,전라남도 순천시청,순천경찰서,N,0,6,2021-03-15,4820000,전라남도 순천시,전라남도
어린이집,코끼리어린이집,전라남도 순천시 해룡면 복성길 9,전남 순천시 해룡면 복성리 465-2,34.94504218,127.5420054,전라남도 순천시청,순천경찰서,Y,2,6,2021-03-15,4820000,전라남도 순천시,전라남도
어린이집,하나둘셋어린이집,전라남도 순천시 해룡면 상성길 274,전남 순천시 해룡면 상삼리 466-8,34.9429786,127.536785,전라남도 순천시청,순천경찰서,Y,2,6,2021-03-15,4820000,전라남도 순천시,전라남도
어린이집,한빛어린이집,전라남도 순천시 오리정3길 64,전남 순천시 석현동 162,34.9733767,127.4852796,전라남도 순천시청,순천경찰서,Y,2,6,2021-03-15,4820000,전라남도 순천시,전라남도
어린이집,아이미소어린이집,전라남도 순천시 해룡면 매안1길 23,전남 순천시 해룡면 신대리 2027-1,34.92843922,127.5531079,전라남도 순천시청,순천경찰서,N,0,6,2021-03-15,4820000,전라남도 순천시,전라남도
어린이집,도레미어린이집,전라남도 순천시 봉화2길 139,전남 순천시 조례동 852-3,34.96431131,127.5168917,전라남도 순천시청,순천경찰서,N,0,6,2021-03-15,4820000,전라남도 순천시,전라남도
유치원,석화유치원,"전라남도 순천시 연향중앙상가길 80(연향동, 현대1차아파트)",전남 순천시 연향동 1378,34.94643551,127.5193543,전라남도 순천시청,순천경찰서,Y,2,6,2021-03-15,4820000,전라남도 순천시,전라남도
어린이집,평화어린이집,광주광역시 동구 학소로 125,광주 동구 학동 768,35.13194803,126.9311795,광주광역시 동구청,광주광역시 동부경찰서,Y,2,10,2021-04-06,3590000,광주광역시 동구,광주광역시
초등학교,동산초등학교,전라남도 순천시 서면 순천로 16,전남 순천시 서면 동산리 11,34.99383703,127.4943075,전라남도 순천시청,순천경찰서,Y,8,18,2021-03-15,4820000,전라남도 순천시,전라남도
초등학교,황전초등학교,전라남도 순천시 황전면 수평길 21,전남 순천시 황전면 수평리 309-1,35.10107982,127.4301357,전라남도 순천시청,순천경찰서,Y,2,5,2021-03-15,4820000,전라남도 순천시,전라남도
초등학교,황전북초등학교,전라남도 순천시 황전면 삽재팔동길 150,전남 순천시 황전면 대치리 435,35.12748449,127.4678216,전라남도 순천시청,순천경찰서,Y,2,5,2021-03-15,4820000,전라남도 순천시,전라남도
초등학교,황전북초등학교 회덕분교,전라남도 순천시 황전면 삽재팔동길 377,전남 순천시 황전면 회룡리 756,35.10847899,127.4957748,전라남도 순천시청,순천경찰서,Y,2,5,2021-03-15,4820000,전라남도 순천시,전라남도
초등학교,월등초등학교,전라남도 순천시 월등면 월평2길 21,전남 순천시 월등면 대평리 458,35.092759,127.3778639,전라남도 순천시청,순천경찰서,Y,4,7,2021-03-15,4820000,전라남도 순천시,전라남도
초등학교,송광초등학교,전라남도 순천시 송광면 쌍향수길 1169,전남 순천시 송광면 이읍리 751,34.961262,127.2669752,전라남도 순천시청,순천경찰서,Y,2,6,2021-03-15,4820000,전라남도 순천시,전라남도
초등학교,주암초등학교,전라남도 순천시 주암면 동주로 2093,전남 순천시 주암면 구산리 721,35.07682306,127.2396504,전라남도 순천시청,순천경찰서,Y,2,8,2021-03-15,4820000,전라남도 순천시,전라남도
초등학교,좌야초등학교,전라남도 순천시 해룡면 좌야로 77-9,전남 순천시 해룡면 신대리 2104,34.93048459,127.5448998,전라남도 순천시청,순천경찰서,Y,4,16,2021-03-15,4820000,전라남도 순천시,전라남도
초등학교,매안초등학교,전라남도 순천시 해룡면 좌야로 16,전남 순천시 해룡면 신대리 2018,34.93086516,127.5524412,전라남도 순천시청,순천경찰서,Y,4,17,2021-03-15,4820000,전라남도 순천시,전라남도
초등학교,신대초등학교,전라남도 순천시 해룡면 좌야로 159-10,전남 순천시 해룡면 신대리 1966-1,34.93968822,127.5459809,전라남도 순천시청,순천경찰서,Y,4,16,2021-03-15,4820000,전라남도 순천시,전라남도
특수학교,선혜학교,전라남도 순천시 비봉길 100,전남 순천시 조례동 845,34.96512716,127.5191919,전라남도 순천시청,순천경찰서,Y,5,9,2021-03-15,4820000,전라남도 순천시,전라남도
어린이집,금당어린이집,전라남도 순천시 해룡면 기적의도서관길 90,전남 순천시 해룡면 상삼리 657,34.94713319,127.5314399,전라남도 순천시청,순천경찰서,Y,1,6,2021-03-15,4820000,전라남도 순천시,전라남도
어린이집,별나라어린이집,전라남도 순천시 덕연로 16,전남 순천시 덕암동 362-15,34.94717371,127.508495,전라남도 순천시청,순천경찰서,Y,3,6,2021-03-15,4820000,전라남도 순천시,전라남도
어린이집,무등어린이집,광주광역시 동구 동계로 33,광주 동구 산수동 371-19,35.15462216,126.9242702,광주광역시 동구청,광주광역시 동부경찰서,Y,2,7,2021-04-06,3590000,광주광역시 동구,광주광역시
어린이집,푸르른어린이집,광주광역시 동구 증심사길 2,광주 동구 운림동 340,35.133451,126.9531401,광주광역시 동구청,광주광역시 동부경찰서,Y,1,12,2021-04-06,3590000,광주광역시 동구,광주광역시
어린이집,아이뜰호남어린이집,광주광역시 동구 중앙로 319,광주 동구 계림동 572-3,35.16024411,126.920238,광주광역시 동구청,광주광역시 동부경찰서,Y,2,3,2021-04-06,3590000,광주광역시 동구,광주광역시
어린이집,동구청대인어린이집,광주광역시 동구 동계천로 26,광주 동구 대인동 315-28,35.155427,126.9150995018,광주광역시 동구청,광주광역시 동부경찰서,Y,2,16,2021-04-06,3590000,광주광역시 동구,광주광역시
어린이집,동광어린이집,광주광역시 동구 학소로62번길 22,광주 동구 소태동 508-7,35.126259,126.936692,광주광역시 동구청,광주광역시 동부경찰서,Y,1,7,2021-04-06,3590000,광주광역시 동구,광주광역시
어린이집,영화어린이집,광주광역시 동구 밤실로4번안길 2,광주 동구 지산동 262-2,35.148678,126.9380572,광주광역시 동구청,광주광역시 동부경찰서,Y,2,4,2021-04-06,3590000,광주광역시 동구,광주광역시
어린이집,해냄어린이집,광주광역시 동구 무등로359번길 7,광주 동구 계림동 85-13,35.16161909,126.9223495,광주광역시 동구청,광주광역시 동부경찰서,Y,2,5,2021-04-06,3590000,광주광역시 동구,광주광역시
어린이집,시청중앙어린이집,광주광역시 동구 중흥로209번길 16,광주 동구 계림동 528-2,35.161331,126.9173301,광주광역시 동구청,광주광역시 동부경찰서,Y,2,5,2021-04-06,3590000,광주광역시 동구,광주광역시
어린이집,광주삼성어린이집,광주광역시 동구 금남로 203,광주 동구 금남로4가 21,35.15060325,126.9151191,광주광역시 동구청,광주광역시 동부경찰서,N,2,5,2021-04-06,3590000,광주광역시 동구,광주광역시
어린이집,푸른동산어린이집,광주광역시 동구 중앙로 319-4,광주 동구 계림동 564-16,35.160422,126.920053,광주광역시 동구청,광주광역시 동부경찰서,Y,1,4,2021-04-06,3590000,광주광역시 동구,광주광역시
어린이집,피망어린이집,광주광역시 동구 무등로 319,광주 동구 계림동 560-10,35.16211021,126.918066,광주광역시 동구청,광주광역시 동부경찰서,Y,2,6,2021-04-06,3590000,광주광역시 동구,광주광역시
어린이집,광수산수교회어린이집,광주광역시 동구 필문대로 173,광주 동구 산수동 539-20,35.15531547,126.932148,광주광역시 동구청,광주광역시 동부경찰서,Y,2,9.5,2021-04-06,3590000,광주광역시 동구,광주광역시
어린이집,예일어린이집,광주광역시 동구 소태길 17-2,광주 동구 소태동 682-6,35.12115516,126.934597,광주광역시 동구청,광주광역시 동부경찰서,Y,2,12,2021-04-06,3590000,광주광역시 동구,광주광역시
어린이집,영신어린이집,광주광역시 동구 화산로 237-5,광주 동구 용산동 430-1,35.11804258,126.9206906,광주광역시 동구청,광주광역시 동부경찰서,Y,3,6,2021-04-06,3590000,광주광역시 동구,광주광역시
어린이집,무궁화어린이집,광주광역시 동구 태봉길 25,광주 동구 소태동 789,35.12990127,126.940136,광주광역시 동구청,광주광역시 동부경찰서,Y,2,3.5,2021-04-06,3590000,광주광역시 동구,광주광역시
어린이집,광주삼광어린이집,광주광역시 동구 소태길3번길 51-9,광주 동구 소태동 400,35.121813,126.9384988,광주광역시 동구청,광주광역시 동부경찰서,Y,2,10,2021-04-06,3590000,광주광역시 동구,광주광역시
어린이집,다솜어린이집,광주광역시 동구 필문대로145번길 1-10,광주 동구 산수동 534-11,35.158106,126.9321847,광주광역시 동구청,광주광역시 동부경찰서,Y,1,7.5,2021-04-06,3590000,광주광역시 동구,광주광역시
어린이집,새싹어린이집,광주광역시 동구 동계천로85번길 6-12,광주 동구 동명동 228-65,35.152149,126.921367,광주광역시 동구청,광주광역시 동부경찰서,Y,1,5,2021-04-06,3590000,광주광역시 동구,광주광역시
어린이집,광주법원어린이집,광주광역시 동구 필문대로187번길 31,광주 동구 산수동 511-61,35.154935,126.936214,광주광역시 동구청,광주광역시 동부경찰서,N,2,8,2021-04-06,3590000,광주광역시 동구,광주광역시
어린이집,꿈동산어린이집,광주광역시 동구 무등로375번길 15-7,광주 동구 계림동 524-10,35.161903,126.923437,광주광역시 동구청,광주광역시 동부경찰서,Y,2,4,2021-04-06,3590000,광주광역시 동구,광주광역시
어린이집,동명어린이집,광주광역시 동구 주남길 20-10,광주 동구 월남동 136-7,35.10150192,126.9419448,광주광역시 동구청,광주광역시 동부경찰서,N,3,5,2021-04-06,3590000,광주광역시 동구,광주광역시
특수학교,행복재활원,광주광역시 동구 증심천로 53,광주 동구 학동 280,35.13104132,126.9345376,광주광역시 동구청,광주광역시 동부경찰서,Y,2,6,2021-04-06,3590000,광주광역시 동구,광주광역시
어린이집,오포능평어린이집,경기도 광주시 오포읍 창뜰아랫길 6,경기 광주시 오포읍 능평리 318-1,37.35028346,127.1668636,경기도 광주시청,광주경찰서,Y,4,9,2020-09-23,5540000,경기도 광주시,경기도
어린이집,매화 어린이집,충청북도 단양군 매포읍 평동11길 8,충북 단양군 매포읍 평동리 161,37.03311443,128.3043367,충청북도 단양군청,충청북도 단양경찰서,Y,3,5,2021-03-15,4480000,충청북도 단양군,충청북도
초등학교,"가평초등학교, 가평초교(병설유치원)",충청북도 단양군 매포읍 가평길 58,충북 단양군 매포읍 가평리 181-2,37.07317505,128.2826994,충청북도 단양군청,충청북도 단양경찰서,Y,2,8,2021-03-15,4480000,충청북도 단양군,충청북도
초등학교,"단천초등학교, 단천초교(병설유치원)",충청북도 단양군 단성면 북상하리길 53,충북 단양군 단성면 북상리 108,36.92657241,128.3388273,충청북도 단양군청,충청북도 단양경찰서,Y,2,8,2021-03-15,4480000,충청북도 단양군,충청북도
어린이집,우리 어린이집,충청북도 단양군 단양읍 별곡12길 5,충북 단양군 단양읍 별곡리 639-1,36.9876499,128.370169,충청북도 단양군청,충청북도 단양경찰서,N,0,5,2021-03-15,4480000,충청북도 단양군,충청북도
초등학교,귀인초등학교,경기도 안양시 동안구 귀인로 248,경기 안양시 동안구 평촌동 932-1,37.38674363,126.965939,경기도 안양시청,동안경찰서,Y,14,18,2020-08-11,3830000,경기도 안양시,경기도
초등학교,금당초등학교(병설포함),전라남도 완도군 금당면 금당로 220-23,전남 완도군 금당면 육산리 260,34.4410429314,127.0612612472,전라남도 완도군청,완도경찰서,Y,,,2020-09-02,4990000,전라남도 완도군,전라남도
초등학교,용안초등학교,전라북도 익산시 용안면 용안교동1길 6-1,전북 익산시 용안면 교동리 250,36.1206868529,126.9544449947,전라북도 익산시청,전라북도 익산경찰서,Y,,,2020-10-22,6450000,전라북도,전라북도
유치원,용안초등학교병설유치원,전라북도 익산시 용안면 용안교동1길 6-1,전북 익산시 용안면 교동리 250,36.1206868529,126.9544449947,전라북도 익산시청,전라북도 익산경찰서,Y,,,2020-10-22,6450000,전라북도,전라북도
초등학교,삼기초등학교,전라북도 익산시 삼기면 황금로 523,전북 익산시 삼기면 간촌리 43-2,36.0200397240,126.9854992526,전라북도 익산시청,전라북도 익산경찰서,Y,,,2020-10-22,6450000,전라북도,전라북도
초등학교,청산초등학교(병설포함),전라남도 완도군 청산면 청산로 1602-1,전남 완도군 청산면 도청리 988,34.1829054025,126.8599051662,전라남도 완도군청,완도경찰서,Y,,,2020-09-02,4990000,전라남도 완도군,전라남도
유치원,세화유치원,경기도 광주시 중앙로 352-6,경기 광주시 송정동 421-1,37.43032265,127.2607323,경기도 광주시청,광주경찰서,Y,3,13,2020-09-23,5540000,경기도 광주시,경기도
유치원,금란초병설유치원,경기도 김포시 고촌읍 장곡로 42,경기 김포시 고촌읍 풍곡리 466-2,37.60765658,126.7511373,경기도 김포시청,김포경찰서,Y,1,8,2021-05-21,4090000,경기도 김포시,경기도
유치원,금성초병설유치원,경기도 김포시 하성면 하성로795번길 26,경기 김포시 하성면 마조리 434,37.74486147,126.6324577,경기도 김포시청,김포경찰서,Y,1,6,2021-05-21,4090000,경기도 김포시,경기도
유치원,금파초병설유치원,경기도 김포시 김포대로926번길 74 (북변동),경기 김포시 북변동 809,37.62424159,126.7167792,경기도 김포시청,김포경찰서,Y,1,12,2021-05-21,4090000,경기도 김포시,경기도
유치원,김포서초병설유치원,경기도 김포시 봉화로 188 (북변동),경기 김포시 북변동 687,37.62902748,126.7017265,경기도 김포시청,김포경찰서,Y,1,12,2021-05-21,4090000,경기도 김포시,경기도
유치원,김포은솔유치원,경기도 김포시 김포한강8로 299,경기 김포시 마산동 616-1,37.64462635,126.6356102,경기도 김포시청,김포경찰서,Y,1,16,2021-05-21,4090000,경기도 김포시,경기도
유치원,꿈나무유치원,경기도 김포시 봉화로 157-22 (북변동),경기 김포시 북변동 790,37.62627671,126.7031223,경기도 김포시청,김포경찰서,Y,1,5,2021-05-21,4090000,경기도 김포시,경기도
유치원,나비초병설유치원,경기도 김포시 김포한강10로134번길 70 (구래동),경기 김포시 구래동 6893-5,37.64026769,126.6259956,경기도 김포시청,김포경찰서,Y,1,15,2021-05-21,4090000,경기도 김포시,경기도
유치원,누리유치원,경기도 김포시 고촌읍 신곡로 114-16,경기 김포시 고촌읍 신곡리 447-87,37.60798987,126.7674294,경기도 김포시청,김포경찰서,Y,1,10,2021-05-21,4090000,경기도 김포시,경기도
유치원,늘품자연유치원,경기도 김포시 고촌읍풍굴로 92번길 43,경기 김포시 고촌읍 풍곡리 328-1,37.61404985,126.7591054,경기도 김포시청,김포경찰서,Y,1,4,2021-05-21,4090000,경기도 김포시,경기도
유치원,다사랑유치원,경기도 김포시 옹주물로 220,경기 김포시 감정동 250,37.6218874,126.6899338,경기도 김포시청,김포경찰서,Y,1,3,2021-05-21,4090000,경기도 김포시,경기도
유치원,다솜유치원,경기도 김포시 풍무로 36 (풍무동),경기 김포시 풍무동 598-8,37.59854081,126.721054,경기도 김포시청,김포경찰서,N,0,6,2021-05-21,4090000,경기도 김포시,경기도
유치원,대곶초병설유치원,경기도 김포시 대곶면 율생중앙로36번길 19,경기 김포시 대곶면 율생리 444,37.65206256,126.584811,경기도 김포시청,김포경찰서,Y,1,7,2021-05-21,4090000,경기도 김포시,경기도
유치원,대명초병설유치원,경기도 김포시 대곶면 대곶로20번길 17,경기 김포시 대곶면 대명리 366-1,37.64842523,126.5535793,경기도 김포시청,김포경찰서,Y,1,10,2021-05-21,4090000,경기도 김포시,경기도
유치원,리라유치원,경기도 김포시 통진읍 김포대로2344번길 109-1,경기 김포시 통진읍 서암리 878-5,37.69712567,126.592491,경기도 김포시청,김포경찰서,N,0,3,2021-05-21,4090000,경기도 김포시,경기도
유치원,마송중앙초병설유치원,경기도 김포시 통진읍 마송1로 140,경기 김포시 통진읍 마송리 499,37.68935404,126.5936942,경기도 김포시청,김포경찰서,Y,1,14,2021-05-21,4090000,경기도 김포시,경기도
유치원,마송초병설유치원,경기도 김포시 통진읍 흥신로 315,경기 김포시 통진읍 마송리 1-2,37.68444153,126.6063018,경기도 김포시청,김포경찰서,Y,1,15,2021-05-21,4090000,경기도 김포시,경기도
유치원,모담유치원,경기도 김포시 모담공원로28번길 36,경기 김포시 운양동 1328-9,37.6507369,126.6841922,경기도 김포시청,김포경찰서,Y,2,4,2021-05-21,4090000,경기도 김포시,경기도
유치원,보아유치원,경기도 김포시 김포한강4로 211-29,경기 김포시 장기동 165,37.64808427,126.6582442,경기도 김포시청,김포경찰서,Y,1,4,2021-05-21,4090000,경기도 김포시,경기도
유치원,사과나무유치원,경기도 김포시 김포대로1216번길 39-28(운양동),경기 김포시 운양동 129-7,37.64144989,126.6900779,경기도 김포시청,김포경찰서,Y,1,11,2021-05-21,4090000,경기도 김포시,경기도
유치원,샘재유치원,경기도 김포시 모담공원로167번길 90,경기 김포시 운양동 1322-1,37.64788656,126.6991655,경기도 김포시청,김포경찰서,N,0,4,2021-05-21,4090000,경기도 김포시,경기도
유치원,서암초병설유치원,경기도 김포시 통진읍 서암로184번길 9,경기 김포시 통진읍 서암리 407,37.6999976,126.605205,경기도 김포시청,김포경찰서,Y,1,9,2021-05-21,4090000,경기도 김포시,경기도
유치원,석정초병설유치원,경기도 김포시 대곶면 대곶로331번길 10,경기 김포시 대곶면 석정리 381,37.67365061,126.5541217,경기도 김포시청,김포경찰서,Y,1,10,2021-05-21,4090000,경기도 김포시,경기도
유치원,솔터초병설유치원,경기도 김포시 김포한강7로22번길 61 (마산동),경기 김포시 마산동 615-3,37.64120928,126.6343433,경기도 김포시청,김포경찰서,Y,1,15,2021-05-21,4090000,경기도 김포시,경기도
유치원,수남초병설유치원,경기도 김포시 대곶면 수남로21번길 24,경기 김포시 대곶면 대벽리 47,37.62889841,126.5883851,경기도 김포시청,김포경찰서,Y,1,9,2021-05-21,4090000,경기도 김포시,경기도
유치원,신곡초병설유치원,경기도 김포시 고촌읍 수기로 67-30,경기 김포시 고촌읍 신곡리 1267,37.59671165,126.7664285,경기도 김포시청,김포경찰서,Y,1,10,2021-05-21,4090000,경기도 김포시,경기도
유치원,신안유치원,경기도 김포시 감정로38번길 29 (감정동),경기 김포시 감정동 689,37.61923435,126.699348,경기도 김포시청,김포경찰서,Y,1,7,2021-05-21,4090000,경기도 김포시,경기도
유치원,신양초병설유치원,경기도 김포시 양촌읍 양곡3로 47,경기 김포시 양촌읍 양곡리 1257,37.65570277,126.6338864,경기도 김포시청,김포경찰서,Y,1,11,2021-05-21,4090000,경기도 김포시,경기도
유치원,신풍초병설유치원,경기도 김포시 풍무로208번길 14 (풍무동),경기 김포시 풍무동 19-5,37.61302763,126.7265847,경기도 김포시청,김포경찰서,Y,1,5,2021-05-21,4090000,경기도 김포시,경기도
유치원,양곡숲유치원,경기도 김포시 양촌읍 양곡3로 164,경기 김포시 양촌읍 양곡리 156,37.66299067,126.6318856,경기도 김포시청,김포경찰서,Y,1,8,2021-05-21,4090000,경기도 김포시,경기도
유치원,양곡초병설유치원,경기도 김포시 양촌읍 양곡로 548,경기 김포시 양촌읍 양곡리 432-10,37.65584193,126.6220146,경기도 김포시청,김포경찰서,Y,1,6,2021-05-21,4090000,경기도 김포시,경기도
유치원,양도초병설유치원,경기도 김포시 풍무로93번길 31 (풍무동),경기 김포시 풍무동 416-6,37.6029114,126.7204503,경기도 김포시청,김포경찰서,Y,1,9,2021-05-21,4090000,경기도 김포시,경기도
유치원,에릭한유치원,경기도 김포시 김포한강2로 266,경기 김포시 장기동 1868-6,37.64809487,126.6631506,경기도 김포시청,김포경찰서,N,0,4,2021-05-21,4090000,경기도 김포시,경기도
유치원,에코새싹유치원,경기도 김포시 월곶면 용강로 189,경기 김포시 월곶면 고막리 171-2,37.73570688,126.5589862,경기도 김포시청,김포경찰서,N,0,5,2021-05-21,4090000,경기도 김포시,경기도
어린이집,대곶어린이집,경기도 김포시 대곶면 율생중앙로 15,경기 김포시 대곶면 율생리 519,37.64964581,126.5829049,경기도 김포시청,김포경찰서,Y,2,6,2021-05-21,4090000,경기도 김포시,경기도
어린이집,마송어린이집,경기도 김포시 통진읍 마송1로 22,경기 김포시 통진읍 마송리 551,37.68390771,126.6053587,경기도 김포시청,김포경찰서,N,0,6,2021-05-21,4090000,경기도 김포시,경기도
어린이집,무지개어린이집,경기도 김포시 통진읍 서암로 348,경기 김포시 통진읍 귀전리 612-1,37.71134879,126.6150407,경기도 김포시청,김포경찰서,N,0,3,2021-05-21,4090000,경기도 김포시,경기도
어린이집,반디어린이집,경기도 김포시 대곶면 오니산로171번길 117-12,경기 김포시 대곶면 오니산리 5-4,37.66402165,126.6190593,경기도 김포시청,김포경찰서,Y,2,3,2021-05-21,4090000,경기도 김포시,경기도
어린이집,백상어린이집,경기도 김포시 해평로 143 (장기동),경기 김포시 장기동 123-1,37.65211285,126.6599283,경기도 김포시청,김포경찰서,N,0,3,2021-05-21,4090000,경기도 김포시,경기도
어린이집,벧엘어린이집,경기도 김포시 하성면 석평로165번길 9,경기 김포시 하성면 석탄리 324-31,37.72570327,126.6501765,경기도 김포시청,김포경찰서,N,0,3,2021-05-21,4090000,경기도 김포시,경기도
어린이집,보듬이나눔이어린이집,경기도 김포시 양촌읍 황금로89번길 44,경기 김포시 양촌읍 학운리 3001,37.61707395,126.623212,경기도 김포시청,김포경찰서,Y,1,8,2021-05-21,4090000,경기도 김포시,경기도
어린이집,북변어린이집,경기도 김포시 김포대로926번길 14 (북변동),경기 김포시 북변동 805,37.62486108,126.7145657,경기도 김포시청,김포경찰서,Y,2,12,2021-05-21,4090000,경기도 김포시,경기도
어린이집,사랑뜰어린이집,경기도 김포시 북변중로25번길 16 (북변동),경기 김포시 북변동 414-20,37.62450296,126.7114679,경기도 김포시청,김포경찰서,Y,2,4,2021-05-21,4090000,경기도 김포시,경기도
어린이집,사우어린이집,경기도 김포시 돌문로 10 (사우동),경기 김포시 사우동 139-16,37.61829977,126.721858,경기도 김포시청,김포경찰서,Y,1,7,2021-05-21,4090000,경기도 김포시,경기도
어린이집,서암어린이집,경기도 김포시 통진읍 서암로 120,경기 김포시 통진읍 서암리 799-24,37.69559283,126.6014879,경기도 김포시청,김포경찰서,Y,1,7,2021-05-21,4090000,경기도 김포시,경기도
어린이집,예쁜새싹어린이집,경기도 김포시 옹주물로 94-4,경기 김포시 감정동 98-2,37.63212404,126.6835572,경기도 김포시청,김포경찰서,N,0,5,2021-05-21,4090000,경기도 김포시,경기도
어린이집,장기어린이집,경기도 김포시 김포한강2로 144 (장기동),경기 김포시 장기동 1598,37.64337664,126.6689995,경기도 김포시청,김포경찰서,N,0,7,2021-05-21,4090000,경기도 김포시,경기도
어린이집,전원어린이집,경기도 김포시 대곶면 불당로 110-25,경기 김포시 대곶면 오니산리 231,37.66751166,126.6080455,경기도 김포시청,김포경찰서,Y,1,3,2021-05-21,4090000,경기도 김포시,경기도
어린이집,죠이어린이집,경기도 김포시 풍무로 54,경기 김포시 풍무동 792,37.60040153,126.7213393,경기도 김포시청,김포경찰서,N,0,8,2021-05-21,4090000,경기도 김포시,경기도
어린이집,하나로어린이집,경기도 김포시 감정로 3-1 (감정동),경기 김포시 감정동 550-26,37.62282236,126.7011659,경기도 김포시청,김포경찰서,N,0,4,2021-05-21,4090000,경기도 김포시,경기도
어린이집,하나어린이집,경기도 김포시 통진읍 도이곶로 9,경기 김포시 통진읍 도사리 456,37.68551027,126.612902,경기도 김포시청,김포경찰서,Y,1,3,2021-05-21,4090000,경기도 김포시,경기도
어린이집,해맑은어린이집,경기도 김포시 봉화로51번길 74-4 (사우동),경기 김포시 사우동 1266,37.61693972,126.7127763,경기도 김포시청,김포경찰서,Y,1,6,2021-05-21,4090000,경기도 김포시,경기도
어린이집,예인어린이집,경기도 김포시 통진읍 고척로228번길 56,경기 김포시 통진읍 고정리 361-9,37.71934151,126.5914767,경기도 김포시청,김포경찰서,Y,1,3,2021-05-21,4090000,경기도 김포시,경기도
어린이집,시립학운어린이집,경기도 김포시 양촌읍 학운산단3로17번길 7,경기 김포시 양촌읍 학운리 3247,37.60525521,126.5921739,경기도 김포시청,김포경찰서,Y,1,8,2021-05-21,4090000,경기도 김포시,경기도
어린이집,양곡어린이집,경기도 김포시 양촌읍 양곡2로60번길 5,경기 김포시 양촌읍 양곡리 863-4,37.65736319,126.6279538,경기도 김포시청,김포경찰서,Y,2,16,2021-05-21,4090000,경기도 김포시,경기도
어린이집,김포한강어린이집,경기도 김포시 옹주물로 30,경기 김포시 장기동 830-1,37.6370159991,126.6866723,경기도 김포시청,김포경찰서,N,0,12,2021-05-21,4090000,경기도 김포시,경기도
어린이집,아림어린이집,경기도 김포시 양촌읍 해평로 126-21,경기 김포시 양촌읍 석모리 255-6,37.6540057703,126.6591144,경기도 김포시청,김포경찰서,N,0,4,2021-05-21,4090000,경기도 김포시,경기도
어린이집,월곶어린이집,경기도 김포시 월곶면 용강로37번길 76,경기 김포시 월곶면 고막리 392-5,37.72363582,126.5537837,경기도 김포시청,김포경찰서,Y,1,3,2021-05-21,4090000,경기도 김포시,경기도
어린이집,리틀예은어린이집,경기도 김포시 청송로 50,경기 김포시 장기동 1341,37.64893575,126.6700106929,경기도 김포시청,김포경찰서,N,0,7,2021-05-21,4090000,경기도 김포시,경기도
유치원,가현도담유치원,경기도 김포시 김포한강8로194번길 20-8,경기 김포시 마산동 645-25,37.63886117,126.6451083,경기도 김포시청,김포경찰서,Y,1,4,2021-05-21,4090000,경기도 김포시,경기도
유치원,가현초병설유치원,경기도 김포시 김포한강2로 83 (장기동),경기 김포시 장기동 2065-3,37.63808092,126.6740029,경기도 김포시청,김포경찰서,Y,1,15,2021-05-21,4090000,경기도 김포시,경기도
유치원,감정초병설유치원,경기도 김포시 중봉로 11 (감정동),경기 김포시 감정동 508-13,37.62347161,126.6953321,경기도 김포시청,김포경찰서,Y,1,21,2021-05-21,4090000,경기도 김포시,경기도
유치원,개곡초병설유치원,경기도 김포시 월곶면 애기봉로 445,경기 김포시 월곶면 개곡리 267-2,37.73204354,126.5936346,경기도 김포시청,김포경찰서,Y,1,6,2021-05-21,4090000,경기도 김포시,경기도
유치원,걸포초병설유치원,경기도 김포시 걸포로 22 (걸포동),경기 김포시 걸포동 1565,37.63359292,126.707541,경기도 김포시청,김포경찰서,Y,1,8,2021-05-21,4090000,경기도 김포시,경기도
유치원,고창초병설유치원,경기도 김포시 김포한강1로98번길 35 (장기동),경기 김포시 장기동 1952,37.64594838,126.6725487,경기도 김포시청,김포경찰서,Y,1,10,2021-05-21,4090000,경기도 김포시,경기도
유치원,고촌초병설유치원,경기도 김포시 고촌읍 신곡로29번길 30,경기 김포시 고촌읍 신곡리 1101,37.60614156,126.7733717,경기도 김포시청,김포경찰서,Y,1,7,2021-05-21,4090000,경기도 김포시,경기도
어린이집,경희어린이집,경기도 김포시 김포대로 1037-19 (북변동),경기 김포시 북변동 136,37.63079911,126.7055249,경기도 김포시청,김포경찰서,Y,1,4,2021-05-21,4090000,경기도 김포시,경기도
어린이집,그림나라어린이집,경기도 김포시 걸포로 163-18 (걸포동),경기 김포시 걸포동 18,37.64590507,126.7002432,경기도 김포시청,김포경찰서,Y,1,3,2021-05-21,4090000,경기도 김포시,경기도
어린이집,김포어린이집,경기도 김포시 북변1로16번길 17 (북변동),경기 김포시 북변동 719,37.62766916,126.7043896,경기도 김포시청,김포경찰서,Y,3,8,2021-05-21,4090000,경기도 김포시,경기도
어린이집,늘푸른어린이집,경기도 김포시 김포대로1216번길 152 (걸포동),경기 김포시 걸포동 36-1,37.6437917,126.6957023,경기도 김포시청,김포경찰서,Y,1,10,2021-05-21,4090000,경기도 김포시,경기도
유치원,익산궁동초등학교병설유치원,전라북도 익산시 무왕로25길 26,전북 익산시 부송동 1119,35.96237636,126.9939117,전라북도 익산시청,전라북도 익산경찰서,Y,,,2020-10-22,6450000,전라북도,전라북도
초등학교,익산초등학교,전라북도 익산시 동서로61길 27-38,전북 익산시 어양동 593,35.9545959876,126.9795409525,전라북도 익산시청,전라북도 익산경찰서,Y,,,2020-10-22,6450000,전라북도,전라북도
유치원,익산초등학교병설유치원,전라북도 익산시 동서로61길 27-38,전북 익산시 어양동 593,35.9545959876,126.9795409525,전라북도 익산시청,전라북도 익산경찰서,Y,,,2020-10-22,6450000,전라북도,전라북도
초등학교,한벌초등학교,전라북도 익산시 부송1로 115,전북 익산시 부송동 1204,35.95887958,126.9945284,전라북도 익산시청,전라북도 익산경찰서,Y,,,2020-10-22,6450000,전라북도,전라북도
초등학교,익산옥야초등학교,전라북도 익산시 옛둑2길 52,전북 익산시 동산동 539-3,35.92227177,126.9599921,전라북도 익산시청,전라북도 익산경찰서,Y,,,2020-10-22,6450000,전라북도,전라북도
유치원,익산옥야초등학교병설유치원,전라북도 익산시 옛둑2길 52,전북 익산시 동산동 539-3,35.92227177,126.9599921,전라북도 익산시청,전라북도 익산경찰서,Y,,,2020-10-22,6450000,전라북도,전라북도
초등학교,천서초등학교,전라북도 익산시 춘포면 천서길 221,전북 익산시 춘포면 천서리 85-2,35.9461524,127.0366551,전라북도 익산시청,전라북도 익산경찰서,Y,,,2020-10-22,6450000,전라북도,전라북도
유치원,천서초등학교병설유치원,전라북도 익산시 춘포면 천서길 221,전북 익산시 춘포면 천서리 85-2,35.9461524,127.0366551,전라북도 익산시청,전라북도 익산경찰서,Y,,,2020-10-22,6450000,전라북도,전라북도
초등학교,이리서초등학교,전라북도 익산시 익산대로 213,전북 익산시 남중동 458-7,35.9452701149,126.9489539315,전라북도 익산시청,전라북도 익산경찰서,Y,,,2020-10-22,6450000,전라북도,전라북도
유치원,이리서초등학교병설유치원,전라북도 익산시 익산대로 213,전북 익산시 남중동 458-7,35.9452701149,126.9489539315,전라북도 익산시청,전라북도 익산경찰서,Y,,,2020-10-22,6450000,전라북도,전라북도
초등학교,이리신동초등학교,전라북도 익산시 무왕로 981,전북 익산시 신동 626-2,35.9616205,126.9672177,전라북도 익산시청,전라북도 익산경찰서,Y,,,2020-10-22,6450000,전라북도,전라북도
유치원,이리신동초등학교병설유치원,전라북도 익산시 무왕로 981,전북 익산시 신동 626-2,35.9616205,126.9672177,전라북도 익산시청,전라북도 익산경찰서,Y,,,2020-10-22,6450000,전라북도,전라북도
초등학교,가온초등학교,전라북도 익산시 선화로1길 106,전북 익산시 모현동2가 636,35.95632593,126.9382575,전라북도 익산시청,전라북도 익산경찰서,N,,,2020-10-22,6450000,전라북도,전라북도
특수학교,전북혜화학교,전라북도 익산시 덕기길 77,전북 익산시 덕기동 751-5,35.96624816,127.0297244,전라북도 익산시청,전라북도 익산경찰서,Y,,,2020-10-22,6450000,전라북도,전라북도
특수학교,전북맹아학교,전라북도 익산시 서동로46길 41,전북 익산시 석암동 358-25,35.9413716099,127.0055953439,전라북도 익산시청,전라북도 익산경찰서,Y,,,2020-10-22,6450000,전라북도,전라북도
유치원,동광유치원,전라북도 익산시 평동로 751-1,전북 익산시 동산동 637-13,35.9283429,126.9613801,전라북도 익산시청,전라북도 익산경찰서,N,,,2020-10-22,6450000,전라북도,전라북도
유치원,신광유치원,전라북도 익산시 고봉로 60,전북 익산시 마동 129-2,35.93960891,126.9625146,전라북도 익산시청,전라북도 익산경찰서,Y,,,2020-10-22,6450000,전라북도,전라북도
유치원,천일유치원,전라북도 익산시 주현로2길 12,전북 익산시 인화동2가 39-14,35.9318707,126.9567515,전라북도 익산시청,전라북도 익산경찰서,N,,,2020-10-22,6450000,전라북도,전라북도
유치원,참마음유치원,전라북도 익산시 부송로6길 1,전북 익산시 부송동 1043,35.9550811,126.9923072,전라북도 익산시청,전라북도 익산경찰서,Y,,,2020-10-22,6450000,전라북도,전라북도
유치원,다솜유치원,전라북도 익산시 신기1길 18,전북 익산시 모현동2가 502-10,35.96093924,126.9360885765,전라북도 익산시청,전라북도 익산경찰서,Y,,,2020-10-22,6450000,전라북도,전라북도
유치원,동산자연유치원,전라북도 익산시 현영길 40-11,전북 익산시 현영동 214-1,35.96463127,126.9373154,전라북도 익산시청,전라북도 익산경찰서,Y,,,2020-10-22,6450000,전라북도,전라북도
유치원,한서유치원,전라북도 익산시 선화로19길 8,전북 익산시 모현동1가 67-23,35.9527115,126.944739,전라북도 익산시청,전라북도 익산경찰서,Y,,,2020-10-22,6450000,전라북도,전라북도
유치원,벧엘유치원,전라북도 익산시 동서로 146-16,전북 익산시 모현동1가 17-10,35.954403,126.9506373,전라북도 익산시청,전라북도 익산경찰서,Y,,,2020-10-22,6450000,전라북도,전라북도
유치원,이리성심유치원,전라북도 익산시 인북로 132,전북 익산시 창인동1가 235-1,35.94090762,126.9547162,전라북도 익산시청,전라북도 익산경찰서,Y,,,2020-10-22,6450000,전라북도,전라북도
유치원,예원유치원,전라북도 익산시 동천로5길 27,전북 익산시 동산동 158,35.9316511,126.968868,전라북도 익산시청,전라북도 익산경찰서,Y,,,2020-10-22,6450000,전라북도,전라북도
유치원,비사벌유치원,전라북도 익산시 고봉로30길 43,전북 익산시 영등동 771-4,35.95552086,126.9748732,전라북도 익산시청,전라북도 익산경찰서,Y,,,2020-10-22,6450000,전라북도,전라북도
유치원,아이캔몬테소리유치원,전라북도 익산시 하나로13길 19,전북 익산시 영등동 846-4,35.96031628,126.979184,전라북도 익산시청,전라북도 익산경찰서,Y,,,2020-10-22,6450000,전라북도,전라북도
유치원,천광유치원,전라북도 익산시 동서로49길 23-19,전북 익산시 영등동 773-23,35.95512856,126.9781781,전라북도 익산시청,전라북도 익산경찰서,N,,,2020-10-22,6450000,전라북도,전라북도
어린이집,이리별나라어린이집,전라북도 익산시 인북로40길 2,전북 익산시 남중동 86-79,35.9467551,126.9591906,전라북도 익산시청,전라북도 익산경찰서,N,,,2020-10-22,6450000,전라북도,전라북도
어린이집,파란나라어린이집,전라북도 익산시 선화로65길 12-5,전북 익산시 어양동 32,35.9500745078,126.9908897629,전라북도 익산시청,전라북도 익산경찰서,N,,,2020-10-22,6450000,전라북도,전라북도
어린이집,천일어린이집,전라북도 익산시 주현로2길 10,전북 익산시 인화동2가 39-17,35.93189946,126.9565298,전라북도 익산시청,전라북도 익산경찰서,N,,,2020-10-22,6450000,전라북도,전라북도
어린이집,열린나라어린이집,전라북도 익산시 배산로 157,전북 익산시 모현동1가 541-10,35.9516173,126.940741,전라북도 익산시청,전라북도 익산경찰서,N,,,2020-10-22,6450000,전라북도,전라북도
어린이집,익산삼성어린이집,전라북도 익산시 학곤로 66,전북 익산시 송학동 141-3,35.9378595,126.939123,전라북도 익산시청,전라북도 익산경찰서,N,,,2020-10-22,6450000,전라북도,전라북도
어린이집,미래어린이집,전라북도 익산시 동천로 73,전북 익산시 동산동 88-9,35.9296427,126.9713431,전라북도 익산시청,전라북도 익산경찰서,Y,,,2020-10-22,6450000,전라북도,전라북도
어린이집,또래(어울림)어린이집,전라북도 익산시 하나로4길 44,전북 익산시 어양동 690,35.9621049,126.9827829,전라북도 익산시청,전라북도 익산경찰서,N,,,2020-10-22,6450000,전라북도,전라북도
어린이집,아이들세상어린이집,전라북도 익산시 무왕로 1543,전북 익산시 석왕동 27-1,35.9714931,127.0253802,전라북도 익산시청,전라북도 익산경찰서,N,,,2020-10-22,6450000,전라북도,전라북도
유치원,샘물선교어린이집,전라북도 익산시 무왕로19길 36-1,전북 익산시 부송동 677-14,35.962245,126.9851583,전라북도 익산시청,전라북도 익산경찰서,N,,,2020-10-22,6450000,전라북도,전라북도
유치원,아이미소어린이집,전라북도 익산시 동천로11길 3-4,전북 익산시 금강동 607-1,35.93002977,126.973229,전라북도 익산시청,전라북도 익산경찰서,Y,,,2020-10-22,6450000,전라북도,전라북도
유치원,쏠티어린이집,전라북도 익산시 익산대로17길 14,전북 익산시 모현동1가 2-34,35.95242031,126.950788,전라북도 익산시청,전라북도 익산경찰서,Y,,,2020-10-22,6450000,전라북도,전라북도
유치원,크레듀어린이집,전라북도 익산시 선화로59길 46-2,전북 익산시 영등동 256-1,35.9492524,126.970913,전라북도 익산시청,전라북도 익산경찰서,Y,,,2020-10-22,6450000,전라북도,전라북도
유치원,고래등어린이집,전라북도 익산시 서동로30길 25,전북 익산시 마동 77-2,35.9353578,126.969208,전라북도 익산시청,전라북도 익산경찰서,N,,,2020-10-22,6450000,전라북도,전라북도
유치원,부송삼성어린이집,전라북도 익산시 선화로 876,전북 익산시 부송동 132-27,35.9740854,126.9985414,전라북도 익산시청,전라북도 익산경찰서,N,,,2020-10-22,6450000,전라북도,전라북도
초등학교,생영초등학교(병설포함),전라남도 완도군 생일면 생일로579번길 3,전남 완도군 생일면 유서리 270,34.3330224777,126.9963681788,전라남도 완도군청,완도경찰서,Y,,,2020-09-02,4990000,전라남도 완도군,전라남도
초등학교,호계초등학교,경기도 안양시 동안구 경수대로 707번길 27,경기 안양시 동안구 호계동 923-17,37.38426921,126.9501229,경기도 안양시청,동안경찰서,Y,3,5,2020-08-11,3830000,경기도 안양시,경기도
초등학교,안양양지초등학교,경기도 안양시 만안구 병목안로 130번길 69,경기 안양시 만안구 안양동 977-1,37.3922459,126.9045536,경기도 안양시청,만안경찰서,Y,10,6,2020-08-11,3830000,경기도 안양시,경기도
초등학교,은여울초교,경기도 김포시 김포한강8로 173-48,경기 김포시 마산동 639-9,37.63792749,126.6390592,경기도 김포시청,김포경찰서,Y,1,8,2021-05-21,4090000,경기도 김포시,경기도
초등학교,장기초교,경기도 김포시 김포한강2로 173 (장기동),경기 김포시 장기동 1639,37.6424329,126.6644191,경기도 김포시청,김포경찰서,Y,1,17,2021-05-21,4090000,경기도 김포시,경기도
초등학교,청수초교,경기도 김포시 김포한강11로 256 (운양동),경기 김포시 운양동 1300-2,37.65389212,126.678697,경기도 김포시청,김포경찰서,Y,1,15,2021-05-21,4090000,경기도 김포시,경기도
초등학교,통진초교,경기도 김포시 통진읍 조강로 116,경기 김포시 통진읍 서암리 1108,37.69388669,126.5944192,경기도 김포시청,김포경찰서,Y,1,10,2021-05-21,4090000,경기도 김포시,경기도
초등학교,푸른솔초교,경기도 김포시 김포한강2로 306 (장기동),경기 김포시 장기동 1866-5,37.65159276,126.665717,경기도 김포시청,김포경찰서,Y,1,15,2021-05-21,4090000,경기도 김포시,경기도
초등학교,풍무초교,경기도 김포시 풍무로96번길 71 (풍무동),경기 김포시 풍무동 136-10,37.6050882,126.7266294,경기도 김포시청,김포경찰서,Y,2,9,2021-05-21,4090000,경기도 김포시,경기도
초등학교,하늘빛초교,경기도 김포시 김포한강11로 374 (운양동),경기 김포시 운양동 1293-2,37.65406215,126.6898223,경기도 김포시청,김포경찰서,Y,2,15,2021-05-21,4090000,경기도 김포시,경기도
초등학교,하성초교,경기도 김포시 하성면 애기봉로 857,경기 김포시 하성면 마곡리 617-1,37.72067128,126.6325732,경기도 김포시청,김포경찰서,Y,1,9,2021-05-21,4090000,경기도 김포시,경기도
초등학교,학운초교,경기도 김포시 양촌읍 황금로70번길 13,경기 김포시 양촌읍 학운리 2825,37.62030006,126.624863,경기도 김포시청,김포경찰서,Y,2,8,2021-05-21,4090000,경기도 김포시,경기도
초등학교,한가람초교,경기도 김포시 김포한강9로115번길 57 (구래동),경기 김포시 구래동 6872-3,37.64773992,126.6218834,경기도 김포시청,김포경찰서,Y,1,15,2021-05-21,4090000,경기도 김포시,경기도
초등학교,호수초교,경기도 김포시 김포한강4로420번길 87 (구래동),경기 김포시 구래동 6875-5,37.64999809,126.6334269,경기도 김포시청,김포경찰서,Y,1,15,2021-05-21,4090000,경기도 김포시,경기도
초등학교,보름초교,경기도 김포시 고촌읍 태리로 267,경기 김포시 고촌읍 신곡리 886,37.59470228,126.7625643,경기도 김포시청,김포경찰서,N,0,12,2021-05-21,4090000,경기도 김포시,경기도
초등학교,김포나진초교,경기도 김포시 걸포2로 58,경기 김포시 걸포동 223,37.6356788,126.7025502,경기도 김포시청,김포경찰서,Y,1,12,2021-05-21,4090000,경기도 김포시,경기도
초등학교,향산초중학교(초),경기도 김포시 고촌읍 상미1로 26,경기 김포시 고촌읍 향산리 29-4,37.61951133,126.7494008,경기도 김포시청,김포경찰서,Y,1,10,2021-05-21,4090000,경기도 김포시,경기도
특수학교,새솔학교,경기도 김포시 김포한강3로 315 (장기동),경기 김포시 장기동 1888-11,37.64056921,126.6558072,경기도 김포시청,김포경찰서,Y,1,8,2021-05-21,4090000,경기도 김포시,경기도
학원,폴리어학원,경기도 김포시 사우중로 48,경기 김포시 사우동 927,37.61907565,126.7191684,경기도 김포시청,김포경찰서,N,0,12,2021-05-21,4090000,경기도 김포시,경기도
초등학교,가현초,경기도 김포시 김포한강2로 83 (장기동),경기 김포시 장기동 2065-3,37.63808092,126.6740029,경기도 김포시청,김포경찰서,Y,1,15,2021-05-21,4090000,경기도 김포시,경기도
초등학교,금빛초교,경기도 김포시 태장로 821 (장기동),경기 김포시 장기동 2158,37.63541532,126.6793542,경기도 김포시청,김포경찰서,Y,1,16,2021-05-21,4090000,경기도 김포시,경기도
초등학교,감정초교,경기도 김포시 중봉로 11 (감정동),경기 김포시 감정동 508-13,37.62347161,126.6953321,경기도 김포시청,김포경찰서,Y,1,21,2021-05-21,4090000,경기도 김포시,경기도
초등학교,개곡초교,경기도 김포시 월곶면 애기봉로 445,경기 김포시 월곶면 개곡리 267-2,37.73204354,126.5936346,경기도 김포시청,김포경찰서,Y,1,6,2021-05-21,4090000,경기도 김포시,경기도
초등학교,걸포초교,경기도 김포시 걸포로 22 (걸포동),경기 김포시 걸포동 1565,37.63359292,126.707541,경기도 김포시청,김포경찰서,Y,1,8,2021-05-21,4090000,경기도 김포시,경기도
초등학교,고창초교,경기도 김포시 김포한강1로98번길 35 (장기동),경기 김포시 장기동 1952,37.64594838,126.6725487,경기도 김포시청,김포경찰서,Y,1,10,2021-05-21,4090000,경기도 김포시,경기도
초등학교,고촌초교,경기도 김포시 고촌읍 신곡로29번길 30,경기 김포시 고촌읍 신곡리 1101,37.60614156,126.7733717,경기도 김포시청,김포경찰서,Y,1,7,2021-05-21,4090000,경기도 김포시,경기도
초등학교,금란초교,경기도 김포시 고촌읍 장곡로 42,경기 김포시 고촌읍 풍곡리 466-2,37.60765658,126.7511373,경기도 김포시청,김포경찰서,Y,1,8,2021-05-21,4090000,경기도 김포시,경기도
초등학교,금성초교,경기도 김포시 하성면 하성로795번길 26,경기 김포시 하성면 마조리 434,37.74486147,126.6324577,경기도 김포시청,김포경찰서,Y,1,6,2021-05-21,4090000,경기도 김포시,경기도
초등학교,금파초교,경기도 김포시 김포대로926번길 74 (북변동),경기 김포시 북변동 809,37.62424159,126.7167792,경기도 김포시청,김포경찰서,Y,1,12,2021-05-21,4090000,경기도 김포시,경기도
초등학교,김포서초교,경기도 김포시 봉화로 188 (북변동),경기 김포시 북변동 687,37.62902748,126.7017265,경기도 김포시청,김포경찰서,Y,1,12,2021-05-21,4090000,경기도 김포시,경기도
초등학교,김포초교,경기도 김포시 북변중로65번길 4-24 (북변동),경기 김포시 북변동 365,37.62583896,126.7084003,경기도 김포시청,김포경찰서,Y,1,12,2021-05-21,4090000,경기도 김포시,경기도
초등학교,나비초,경기도 김포시 김포한강10로134번길 70 (구래동),경기 김포시 구래동 6893-5,37.64026769,126.6259956,경기도 김포시청,김포경찰서,Y,1,15,2021-05-21,4090000,경기도 김포시,경기도
초등학교,대곶초교,경기도 김포시 대곶면 율생중앙로36번길 19,경기 김포시 대곶면 율생리 444,37.65206256,126.584811,경기도 김포시청,김포경찰서,Y,1,7,2021-05-21,4090000,경기도 김포시,경기도
초등학교,대명초교,경기도 김포시 대곶면 대곶로20번길 17,경기 김포시 대곶면 대명리 366-1,37.64842523,126.5535793,경기도 김포시청,김포경찰서,Y,1,10,2021-05-21,4090000,경기도 김포시,경기도
초등학교,구래초교,경기도 김포시 김포한강9로12번길 7-30,경기 김포시 구래동 6891-2,37.63947947,126.6276484,경기도 김포시청,김포경찰서,Y,1,15,2021-05-21,4090000,경기도 김포시,경기도
초등학교,마송중앙초교,경기도 김포시 통진읍 마송1로 140,경기 김포시 통진읍 마송리 499,37.68935404,126.5936942,경기도 김포시청,김포경찰서,Y,1,14,2021-05-21,4090000,경기도 김포시,경기도
초등학교,마송초교,경기도 김포시 통진읍 흥신로 315,경기 김포시 통진읍 마송리 1-2,37.68444153,126.6063018,경기도 김포시청,김포경찰서,Y,1,15,2021-05-21,4090000,경기도 김포시,경기도
초등학교,사우초교,경기도 김포시 사우로 20 (사우동),경기 김포시 사우동 907,37.62057467,126.723928,경기도 김포시청,김포경찰서,Y,1,6,2021-05-21,4090000,경기도 김포시,경기도
초등학교,서암초교,경기도 김포시 통진읍 서암로184번길 9,경기 김포시 통진읍 서암리 407,37.6999976,126.605205,경기도 김포시청,김포경찰서,Y,1,9,2021-05-21,4090000,경기도 김포시,경기도
초등학교,석정초교,경기도 김포시 대곶면 대곶로331번길 10,경기 김포시 대곶면 석정리 381,37.67365061,126.5541217,경기도 김포시청,김포경찰서,Y,1,10,2021-05-21,4090000,경기도 김포시,경기도
초등학교,솔터초교,경기도 김포시 김포한강7로22번길 61 (마산동),경기 김포시 마산동 615-3,37.64120928,126.6343433,경기도 김포시청,김포경찰서,Y,1,15,2021-05-21,4090000,경기도 김포시,경기도
초등학교,수남초교,경기도 김포시 대곶면 수남로21번길 24,경기 김포시 대곶면 대벽리 47,37.62889841,126.5883851,경기도 김포시청,김포경찰서,Y,1,9,2021-05-21,4090000,경기도 김포시,경기도
초등학교,신곡초교,경기도 김포시 고촌읍 수기로 67-30,경기 김포시 고촌읍 신곡리 1267,37.59671165,126.7664285,경기도 김포시청,김포경찰서,Y,2,10,2021-05-21,4090000,경기도 김포시,경기도
초등학교,신양초교,경기도 김포시 양촌읍 양곡3로 47,경기 김포시 양촌읍 양곡리 1257,37.65570277,126.6338864,경기도 김포시청,김포경찰서,Y,1,11,2021-05-21,4090000,경기도 김포시,경기도
초등학교,신풍초교,경기도 김포시 풍무로208번길 14 (풍무동),경기 김포시 풍무동 19-5,37.61302763,126.7265847,경기도 김포시청,김포경찰서,Y,1,5,2021-05-21,4090000,경기도 김포시,경기도
초등학교,양곡초교,경기도 김포시 양촌읍 양곡로 548,경기 김포시 양촌읍 양곡리 432-10,37.65584193,126.6220146,경기도 김포시청,김포경찰서,Y,1,6,2021-05-21,4090000,경기도 김포시,경기도
초등학교,양도초교,경기도 김포시 풍무로93번길 31 (풍무동),경기 김포시 풍무동 416-6,37.6029114,126.7204503,경기도 김포시청,김포경찰서,Y,1,9,2021-05-21,4090000,경기도 김포시,경기도
초등학교,옹정초교,경기도 김포시 통진읍 옹정로185번길 26,경기 김포시 통진읍 옹정리 167-44,37.69412627,126.5638952,경기도 김포시청,김포경찰서,Y,1,6,2021-05-21,4090000,경기도 김포시,경기도
초등학교,운양초교,경기도 김포시 전원로38번길 99 (운양동),경기 김포시 운양동 273-3,37.64621239,126.6900825,경기도 김포시청,김포경찰서,Y,1,8,2021-05-21,4090000,경기도 김포시,경기도
초등학교,운유초교,경기도 김포시 김포한강2로 239 (장기동),경기 김포시 장기동 1885-7,37.64674397,126.660387,경기도 김포시청,김포경찰서,Y,1,15,2021-05-21,4090000,경기도 김포시,경기도
초등학교,월곶초교,경기도 김포시 월곶면 군하로276번길 28,경기 김포시 월곶면 군하리 84-1,37.71771201,126.5521777,경기도 김포시청,김포경찰서,Y,1,8,2021-05-21,4090000,경기도 김포시,경기도
초등학교,유현초교,경기도 김포시 유현로33번길 50 (풍무동),경기 김포시 풍무동 552-8,37.59899302,126.7262239,경기도 김포시청,김포경찰서,Y,1,9,2021-05-21,4090000,경기도 김포시,경기도
유치원,영재유치원,경기도 김포시 풍무로 194 (풍무동),경기 김포시 풍무동 24-41,37.61238078,126.7253414,경기도 김포시청,김포경찰서,Y,1,18,2021-05-21,4090000,경기도 김포시,경기도
유치원,예그랑유치원,경기도 김포시 유현로 19 (풍무동),경기 김포시 풍무동 583-6,37.59754327,126.7246268,경기도 김포시청,김포경찰서,Y,1,15,2021-05-21,4090000,경기도 김포시,경기도
유치원,예원유치원,경기도 김포시 풍년로 22 (사우동),경기 김포시 사우동 862,37.62297814,126.7245553,경기도 김포시청,김포경찰서,Y,1,7,2021-05-21,4090000,경기도 김포시,경기도
유치원,예은유치원,경기도 김포시 김포한강2로 130 (장기동),경기 김포시 장기동 1596,37.64059264,126.6696634,경기도 김포시청,김포경찰서,N,0,11,2021-05-21,4090000,경기도 김포시,경기도
유치원,예일유치원,경기도 김포시 고촌읍 태리로190번길 40,경기 김포시 고촌읍 태리 130,37.59582248,126.7524877,경기도 김포시청,김포경찰서,Y,1,10,2021-05-21,4090000,경기도 김포시,경기도
유치원,예지유치원,경기도 김포시 걸포로 24 (걸포동),경기 김포시 걸포동 1568,37.63387458,126.7082729,경기도 김포시청,김포경찰서,Y,1,8,2021-05-21,4090000,경기도 김포시,경기도
유치원,옹정초병설유치원,경기도 김포시 통진읍 옹정로185번길 26,경기 김포시 통진읍 옹정리 167-44,37.69412627,126.5638952,경기도 김포시청,김포경찰서,Y,1,6,2021-05-21,4090000,경기도 김포시,경기도
유치원,운양초병설유치원,경기도 김포시 전원로38번길 99 (운양동),경기 김포시 운양동 273-3,37.64621239,126.6900825,경기도 김포시청,김포경찰서,Y,1,8,2021-05-21,4090000,경기도 김포시,경기도
유치원,운유초병설유치원,경기도 김포시 김포한강2로 239 (장기동),경기 김포시 장기동 1885-7,37.64674397,126.660387,경기도 김포시청,김포경찰서,Y,1,15,2021-05-21,4090000,경기도 김포시,경기도
유치원,월곶초병설유치원,경기도 김포시 월곶면 군하로276번길 28,경기 김포시 월곶면 군하리 84-1,37.71771201,126.5521777,경기도 김포시청,김포경찰서,Y,1,8,2021-05-21,4090000,경기도 김포시,경기도
유치원,유현초병설유치원,경기도 김포시 유현로33번길 50 (풍무동),경기 김포시 풍무동 552-8,37.59899302,126.7262239,경기도 김포시청,김포경찰서,Y,1,9,2021-05-21,4090000,경기도 김포시,경기도
유치원,이든유치원,경기도 김포시 김포한강2로24번길 34,경기 김포시 장기동 2000-4,37.64405023,126.6767428,경기도 김포시청,김포경찰서,Y,1,13,2021-05-21,4090000,경기도 김포시,경기도
유치원,이화몬테소리유치원,경기도 김포시 양도로 18 (풍무동),경기 김포시 풍무동 147,37.60581319,126.7245002,경기도 김포시청,김포경찰서,Y,1,7,2021-05-21,4090000,경기도 김포시,경기도
유치원,자연아이유치원,경기도 김포시 통진읍 마송로 65-38,경기 김포시 통진읍 마송리 273-2,37.68275899,126.6004146,경기도 김포시청,김포경찰서,N,0,3,2021-05-21,4090000,경기도 김포시,경기도
유치원,장기초병설유치원,경기도 김포시 김포한강2로 173 (장기동),경기 김포시 장기동 1639,37.6424329,126.6644191,경기도 김포시청,김포경찰서,Y,1,17,2021-05-21,4090000,경기도 김포시,경기도
유치원,중앙유치원,경기도 김포시 승가로 14 (풍무동),경기 김포시 풍무동 88-3,37.60680049,126.7208108,경기도 김포시청,김포경찰서,Y,1,8,2021-05-21,4090000,경기도 김포시,경기도
유치원,진명유치원,경기도 김포시 금파로 159 (사우동),경기 김포시 사우동 1423,37.62601916,126.7258175,경기도 김포시청,김포경찰서,Y,1,3,2021-05-21,4090000,경기도 김포시,경기도
유치원,참조은유치원,경기도 김포시 돌문로86번길 12-17 (사우동),경기 김포시 사우동 1042,37.62157249,126.7153983,경기도 김포시청,김포경찰서,Y,3,7,2021-05-21,4090000,경기도 김포시,경기도
유치원,청수초병설유치원,경기도 김포시 김포한강11로 256 (운양동),경기 김포시 운양동 1300-2,37.65389212,126.678697,경기도 김포시청,김포경찰서,Y,1,15,2021-05-21,4090000,경기도 김포시,경기도
유치원,통진초병설유치원,경기도 김포시 통진읍 조강로 116,경기 김포시 통진읍 서암리 1108,37.69388669,126.5944192,경기도 김포시청,김포경찰서,Y,1,10,2021-05-21,4090000,경기도 김포시,경기도
유치원,통진푸른유치원,경기도 김포시 통진읍 조강로56번길 116-19,경기 김포시 통진읍 서암리 475-5,37.69491613,126.6046501,경기도 김포시청,김포경찰서,Y,1,4,2021-05-21,4090000,경기도 김포시,경기도
유치원,풍무숙명유치원,경기도 김포시 유현로 200,경기 김포시 풍무동 354-1,37.60965368,126.7325071,경기도 김포시청,김포경찰서,Y,1,16,2021-05-21,4090000,경기도 김포시,경기도
유치원,풍무초병설유치원,경기도 김포시 풍무로96번길 71 (풍무동),경기 김포시 풍무동 136-10,37.6050882,126.7266294,경기도 김포시청,김포경찰서,Y,2,9,2021-05-21,4090000,경기도 김포시,경기도
유치원,프라임운양유치원,경기도 김포시 김포한강11로438번길 96,경기 김포시 운양동 1287-3,37.65098683,126.6977977,경기도 김포시청,김포경찰서,Y,1,8,2021-05-21,4090000,경기도 김포시,경기도
유치원,프라임유치원,경기도 김포시 양촌읍 양곡2로 5-14,경기 김포시 양촌읍 구래리 446-1,37.65184576,126.6264918,경기도 김포시청,김포경찰서,Y,1,4,2021-05-21,4090000,경기도 김포시,경기도
유치원,하늘빛유치원,경기도 김포시 풍무로69번길 47 (풍무동),경기 김포시 풍무동 748,37.60244569,126.7188808,경기도 김포시청,김포경찰서,Y,2,6,2021-05-21,4090000,경기도 김포시,경기도
유치원,하늘빛초병설유치원,경기도 김포시 김포한강11로 374 (운양동),경기 김포시 운양동 1293-2,37.65406215,126.6898223,경기도 김포시청,김포경찰서,Y,2,15,2021-05-21,4090000,경기도 김포시,경기도
유치원,하성초병설유치원,경기도 김포시 하성면 애기봉로 857,경기 김포시 하성면 마곡리 617-1,37.72067128,126.6325732,경기도 김포시청,김포경찰서,Y,1,9,2021-05-21,4090000,경기도 김포시,경기도
유치원,학운초병설유치원,경기도 김포시 양촌읍 황금로70번길 13,경기 김포시 양촌읍 학운리 2825,37.62030006,126.624863,경기도 김포시청,김포경찰서,Y,2,8,2021-05-21,4090000,경기도 김포시,경기도
유치원,한강유치원,경기도 김포시 양촌읍 양곡3로1번길 39,경기 김포시 양촌읍 양곡리 1329,37.65385782,126.6305965,경기도 김포시청,김포경찰서,N,0,8,2021-05-21,4090000,경기도 김포시,경기도
유치원,호수초병설유치원,경기도 김포시 김포한강4로420번길 87 (구래동),경기 김포시 구래동 6875-5,37.64999809,126.6334269,경기도 김포시청,김포경찰서,Y,1,15,2021-05-21,4090000,경기도 김포시,경기도
유치원,화인유치원,경기도 김포시 전원로 27 (장기동),경기 김포시 운양동 1436,37.64684805,126.6828897,경기도 김포시청,김포경찰서,Y,2,9,2021-05-21,4090000,경기도 김포시,경기도
유치원,효성유치원,경기도 김포시 고촌읍 장곡로 2-25,경기 김포시 고촌읍 풍곡리 472,37.60640104,126.7549637,경기도 김포시청,김포경찰서,Y,2,10,2021-05-21,4090000,경기도 김포시,경기도
유치원,한서유치원,전라북도 익산시 선화로19길 8,전북 익산시 모현동1가 67-23,35.9527115,126.944739,전라북도 익산시청,익산경찰서,Y,,,2021-03-17,4680000,전라북도 익산시,전라북도
유치원,벧엘유치원,전라북도 익산시 동서로 146-16,전북 익산시 모현동1가 17-10,35.9544029993,126.950681,전라북도 익산시청,익산경찰서,Y,,,2021-03-17,4680000,전라북도 익산시,전라북도
유치원,이리성심유치원,전라북도 익산시 인북로 132,전북 익산시 창인동1가 235-1,35.9409076207,126.9547161820,전라북도 익산시청,익산경찰서,Y,,,2021-03-17,4680000,전라북도 익산시,전라북도
유치원,예원유치원,전라북도 익산시 동천로5길 27,전북 익산시 동산동 158,35.9316511,126.9688680,전라북도 익산시청,익산경찰서,Y,,,2021-03-17,4680000,전라북도 익산시,전라북도
유치원,비사벌유치원,전라북도 익산시 고봉로30길 43,전북 익산시 영등동 771-4,35.9555208554,126.9748731609,전라북도 익산시청,익산경찰서,Y,,,2021-03-17,4680000,전라북도 익산시,전라북도
유치원,아이캔몬테소리유치원,전라북도 익산시 하나로13길 19,전북 익산시 영등동 846-4,35.9603162751,126.979184,전라북도 익산시청,익산경찰서,Y,,,2021-03-17,4680000,전라북도 익산시,전라북도
유치원,천광유치원,전라북도 익산시 동서로49길 23-19,전북 익산시 영등동 773-23,35.9551285607,126.9781781,전라북도 익산시청,익산경찰서,N,,,2021-03-17,4680000,전라북도 익산시,전라북도
어린이집,이리별나라어린이집,전라북도 익산시 인북로40길 2,전북 익산시 남중동 86-79,35.9467551,126.9591905614,전라북도 익산시청,익산경찰서,N,,,2021-03-17,4680000,전라북도 익산시,전라북도
어린이집,파란나라어린이집,전라북도 익산시 선화로65길 12-5,전북 익산시 어양동 32,35.9500745078,126.9908897629,전라북도 익산시청,익산경찰서,N,,,2021-03-17,4680000,전라북도 익산시,전라북도
어린이집,천일어린이집,전라북도 익산시 주현로2길 10,전북 익산시 인화동2가 39-17,35.9318994634,126.9565298072,전라북도 익산시청,익산경찰서,N,,,2021-03-17,4680000,전라북도 익산시,전라북도
어린이집,열린나라어린이집,전라북도 익산시 배산로 157,전북 익산시 모현동1가 541-10,35.9516173,126.940741,전라북도 익산시청,익산경찰서,N,,,2021-03-17,4680000,전라북도 익산시,전라북도
어린이집,익산삼성어린이집,전라북도 익산시 학곤로 66,전북 익산시 송학동 141-3,35.9378595,126.9391229599,전라북도 익산시청,익산경찰서,N,,,2021-03-17,4680000,전라북도 익산시,전라북도
어린이집,미래어린이집,전라북도 익산시 동천로 73,전북 익산시 동산동 88-9,35.9296427,126.9713431,전라북도 익산시청,익산경찰서,Y,,,2021-03-17,4680000,전라북도 익산시,전라북도
어린이집,또래(어울림)어린이집,전라북도 익산시 하나로4길 44,전북 익산시 어양동 690,35.9621049022,126.9827829,전라북도 익산시청,익산경찰서,N,,,2021-03-17,4680000,전라북도 익산시,전라북도
어린이집,아이들세상어린이집,전라북도 익산시 무왕로 1543,전북 익산시 석왕동 27-1,35.9714931,127.0253802475,전라북도 익산시청,익산경찰서,N,,,2021-03-17,4680000,전라북도 익산시,전라북도
유치원,샘물선교어린이집,전라북도 익산시 무왕로19길 36-1,전북 익산시 부송동 677-14,35.9622450,126.9851583,전라북도 익산시청,익산경찰서,N,,,2021-03-17,4680000,전라북도 익산시,전라북도
유치원,아이미소어린이집,전라북도 익산시 동천로11길 3-4,전북 익산시 금강동 607-1,35.9300297685,126.973229,전라북도 익산시청,익산경찰서,Y,,,2021-03-17,4680000,전라북도 익산시,전라북도
유치원,쏠티어린이집,전라북도 익산시 익산대로17길 14,전북 익산시 모현동1가 2-34,35.9524203104,126.950788,전라북도 익산시청,익산경찰서,Y,,,2021-03-17,4680000,전라북도 익산시,전라북도
유치원,크레듀어린이집,전라북도 익산시 선화로59길 46-2,전북 익산시 영등동 256-1,35.9492524,126.970913,전라북도 익산시청,익산경찰서,Y,,,2021-03-17,4680000,전라북도 익산시,전라북도
유치원,고래등어린이집,전라북도 익산시 서동로30길 25,전북 익산시 마동 77-2,35.9353578,126.969208,전라북도 익산시청,익산경찰서,N,,,2021-03-17,4680000,전라북도 익산시,전라북도
유치원,부송삼성어린이집,전라북도 익산시 선화로 876,전북 익산시 부송동 132-27,35.9740853968,126.9985414,전라북도 익산시청,익산경찰서,N,,,2021-03-17,4680000,전라북도 익산시,전라북도
어린이집,이지어린이집,경기도 용인시 기흥구 예현로35번길 30,경기 용인시 기흥구 서천동 373-9,37.2415768885,127.0663591505,경기도 용인시,용인동부경찰서,N,,12,2019-12-18,4050000,경기도 용인시,경기도
어린이집,미지어린이집,경기도 용인시 처인구 신송로141번길 2,경기 용인시 처인구 마평동 88-2,37.2289898946,127.2470383751,경기도 용인시,용인동부경찰서,Y,1,8,2019-12-18,4050000,경기도 용인시,경기도
어린이집,GC차일드케어어린이집,경기도 용인시 기흥구 이현로30번길 84,경기 용인시 기흥구 보정동 809-5,37.3150367236,127.1020180842,경기도 용인시,용인동부경찰서,N,,8,2019-12-18,4050000,경기도 용인시,경기도
어린이집,단양 어린이집,충청북도 단양군 단양읍 상진7길 8,충북 단양군 단양읍 상진리 584,36.97981995,128.3536903,충청북도 단양군청,충청북도 단양경찰서,Y,3,8,2021-03-15,4480000,충청북도 단양군,충청북도
어린이집,어상천 어린이집,충청북도 단양군 어상천면 매포어상천로 1299,충북 단양군 어상천면 임현리 427,37.10222898,128.3538409,충청북도 단양군청,충청북도 단양경찰서,Y,1,12,2021-03-15,4480000,충청북도 단양군,충청북도
어린이집,호산나 어린이집,충청북도 단양군 단양읍 도전9가길 2,충북 단양군 단양읍 도전리 316,36.97745162,128.365653,충청북도 단양군청,충청북도 단양경찰서,Y,1,5,2021-03-15,4480000,충청북도 단양군,충청북도
어린이집,꿈나무 어린이집,충청북도 단양군 매포읍 평동38길 8-6,충북 단양군 매포읍 평동리 1345,37.03132527,128.295937,충청북도 단양군청,충청북도 단양경찰서,Y,3,16,2021-03-15,4480000,충청북도 단양군,충청북도
어린이집,단양 새싹 어린이집,충청북도 단양군 단양읍 삼봉로 340,충북 단양군 단양읍 별곡리 593,36.98714802,128.369987,충청북도 단양군청,충청북도 단양경찰서,Y,3,24,2021-03-15,4480000,충청북도 단양군,충청북도
유치원,남부산유치원,부산광역시 수영구 광남로48번길 41,부산 수영구 남천동 5-19,35.14627775,129.1139995,부산광역시 수영구청,남부경찰서,Y,,8,2021-06-30,3380000,부산광역시 수영구,부산광역시
유치원,명성유치원,부산광역시 수영구 망미번영로 88,부산 수영구 망미동 393-42,35.174976,129.111513,부산광역시 수영구청,연제경찰서,Y,,6~10,2021-06-30,3380000,부산광역시 수영구,부산광역시
유치원,백산자연유치원,부산광역시 수영구 무학로69번길 66,부산 수영구 민락동 545-1,35.16416005,129.120504,부산광역시 수영구청,남부경찰서,Y,,6~12,2021-06-30,3380000,부산광역시 수영구,부산광역시
유치원,분도유치원,부산광역시 수영구 수영로497번길 18,부산 수영구 광안동 319-6,35.151155,129.110711,부산광역시 수영구청,남부경찰서,Y,,6~8,2021-06-30,3380000,부산광역시 수영구,부산광역시
유치원,성모유치원,부산광역시 수영구 민락본동로27번길 15,부산 수영구 민락동 18-13,35.158778,129.127833,부산광역시 수영구청,남부경찰서,Y,,6~20,2021-06-30,3380000,부산광역시 수영구,부산광역시
유치원,소화유치원,부산광역시 수영구 남천동로9번길 10-5,부산 수영구 남천동 13-4,35.14333914,129.110409,부산광역시 수영구청,남부경찰서,Y,,6,2021-06-30,3380000,부산광역시 수영구,부산광역시
유치원,수영로유치원,부산광역시 수영구 수영로679번길 9,부산 수영구 광안동 1077-25,35.16638033,129.114368,부산광역시 수영구청,남부경찰서,Y,,8,2021-06-30,3380000,부산광역시 수영구,부산광역시
유치원,에버그린,부산광역시 수영구 망미배산로 104-7,부산 수영구 망미동 952-7,35.17568303,129.0967838,부산광역시 수영구청,연제경찰서,Y,,6,2021-06-30,3380000,부산광역시 수영구,부산광역시
유치원,남천유치원,부산광역시 수영구 남천서로14(남천동),부산 수영구 남천동 69-27,35.14351616,129.1071266,부산광역시 수영구청,남부경찰서,Y,,4~12,2021-06-30,3380000,부산광역시 수영구,부산광역시
유치원,천사유치원,부산광역시 수영구 수영로427번길 15,부산 수영구 남천동 69-1,35.144304,129.1082535,부산광역시 수영구청,남부경찰서,Y,,4~12,2021-06-30,3380000,부산광역시 수영구,부산광역시
유치원,평화유치원,부산광역시 수영구 연수로312번길 2,부산 수영구 망미동 801-3,35.171675,129.1043065,부산광역시 수영구청,연제경찰서,N,,4~12,2021-06-30,3380000,부산광역시 수영구,부산광역시
유치원,호암유치원,부산광역시 수영구 수영로545번길 29,부산 수영구 광안동 379-49,35.154799,129.110787,부산광역시 수영구청,남부경찰서,Y,,6~8,2021-06-30,3380000,부산광역시 수영구,부산광역시
어린이집,영주암어린이집,부산광역시 수영구 망미배산로76번나길 11,부산 수영구 망미동 880-47,35.17638465,129.099125,부산광역시 수영구청,연제경찰서,Y,,6~8,2021-06-30,3380000,부산광역시 수영구,부산광역시
어린이집,아이사랑어린이집,부산광역시 수영구 수미로26번길 75(수영동),부산 수영구 수영동 392,35.171599,129.115761,부산광역시 수영구청,남부경찰서,Y,,7,2021-06-30,3380000,부산광역시 수영구,부산광역시
어린이집,광안,부산광역시 수영구 광일로29번가길 66,부산 수영구 광안동 526-3,35.160923,129.107123,부산광역시 수영구청,남부경찰서,Y,,6,2021-06-30,3380000,부산광역시 수영구,부산광역시
어린이집,도산,부산광역시 수영구 무학로63번길 5,부산 수영구 민락동 149-6,35.161442,129.120507,부산광역시 수영구청,남부경찰서,Y,1,6~20,2021-06-30,3380000,부산광역시 수영구,부산광역시
어린이집,동성큰사랑어린이집,부산광역시 수영구 황령산로8번길 6,부산 수영구 남천동 48-16,35.14779554,129.109744,부산광역시 수영구청,남부경찰서,Y,,6~8,2021-06-30,3380000,부산광역시 수영구,부산광역시
어린이집,백송영재,부산광역시 수영구 광안로35번길 9,부산 수영구 광안동 150-31,35.15601405,129.116138,부산광역시 수영구청,남부경찰서,Y,,6,2021-06-30,3380000,부산광역시 수영구,부산광역시
어린이집,수영동산어린이집,부산광역시 수영구 망미번영로70번길 155,부산 수영구 수영동 291,35.16923128,129.1160253,부산광역시 수영구청,연제경찰서,Y,1,6,2021-06-30,3380000,부산광역시 수영구,부산광역시
어린이집,"에덴(구,동그랑)",부산광역시 수영구 남천동로16번길 16,부산 수영구 남천동 17-5,35.14208817,129.109615,부산광역시 수영구청,남부경찰서,Y,,6~12,2021-06-30,3380000,부산광역시 수영구,부산광역시
어린이집,중앙어린이집,부산광역시 수영구 황령산로 42,부산 수영구 남천동 39-29,35.14929409,129.106525,부산광역시 수영구청,남부경찰서,N,,8,2021-06-30,3380000,부산광역시 수영구,부산광역시
어린이집,바다빛어린이집,부산광역시 수영구 민락수변로7번길 60,부산 수영구 민락동 773,35.15551931,129.1265241,부산광역시 수영구청,남부경찰서,Y,,7~11,2021-06-30,3380000,부산광역시 수영구,부산광역시
유치원,수영초교병설유치원,부산광역시 수영구 광서로16번길 33(광안동),부산 수영구 광안동 725-3,35.1661244,129.112038,부산광역시 수영구청,남부경찰서,Y,,6,2021-06-30,3380000,부산광역시 수영구,부산광역시
유치원,광안초교병설유치원,부산광역시 수영구 광안로21번가길 38,부산 수영구 광안동 152-21,35.15652651,129.1171796,부산광역시 수영구청,남부경찰서,Y,,5~16,2021-06-30,3380000,부산광역시 수영구,부산광역시
유치원,민락초교병설유치원,부산광역시 수영구 광남로257번길 12(민락동),부산 수영구 민락동 3,35.1609477,129.126942,부산광역시 수영구청,남부경찰서,Y,,6~8,2021-06-30,3380000,부산광역시 수영구,부산광역시
유치원,광남초교병설유치원,부산광역시 수영구 광안해변로 115(남천2동),부산 수영구 남천동 147,35.14507176,129.1134247,부산광역시 수영구청,남부경찰서,Y,,4~8,2021-06-30,3380000,부산광역시 수영구,부산광역시
어린이집,천사 어린이집,충청북도 단양군 단양읍 도전1로 8,충북 단양군 단양읍 도전리 9,36.98270412,128.3668188,충청북도 단양군청,충청북도 단양경찰서,Y,3,16,2021-03-15,4480000,충청북도 단양군,충청북도
초등학교,해룡초등학교,전라남도 순천시 해룡면 해룡로 1119,전남 순천시 해룡면 월전리 389-1,34.91265972,127.5355029,전라남도 순천시청,순천경찰서,Y,2,9,2021-03-15,4820000,전라남도 순천시,전라남도
초등학교,낙안초등학교,전라남도 순천시 낙안면 동서길 20,전남 순천시 낙안면 성북리 312,34.9092054,127.3428726,전라남도 순천시청,순천경찰서,Y,2,6,2021-03-15,4820000,전라남도 순천시,전라남도
초등학교,별량초등학교,전라남도 순천시 별량면 별량길 58,전남 순천시 별량면 봉림리 158-1,34.8757508,127.4521489,전라남도 순천시청,순천경찰서,Y,2,7,2021-03-15,4820000,전라남도 순천시,전라남도
초등학교,별량초등학교 송산분교,전라남도 순천시 별량면 송산구기길 13,전남 순천시 별량면 송기리 298,34.85013762,127.4162533,전라남도 순천시청,순천경찰서,Y,5,7,2021-03-15,4820000,전라남도 순천시,전라남도
어린이집,화정 어린이집,광주광역시 서구 염화로160번길 8,광주 서구 화정동 1174,35.142848,126.8820884,광주광역시 서구,서부경찰서,N,0,8,2021-03-24,3600000,광주광역시 서구,광주광역시
어린이집,해달 어린이집(유치원),광주광역시 서구 상무자유로 25,광주 서구 치평동 889-3,35.1526371,126.8368978,광주광역시 서구,서부경찰서,N,0,15,2021-03-24,3600000,광주광역시 서구,광주광역시
초등학교,망운초등학교,전라남도 무안군 망운면 망운로 43-4,전남 무안군 망운면 목서리 54-2,35.0159359792,126.3923287207,전라남도 무안군,무안경찰서,Y,6,,2020-04-23,4950000,전라남도 무안군,전라남도
초등학교,성남초등학교,전라남도 순천시 우석로 160,전남 순천시 남정동 525,34.94242338,127.489642,전라남도 순천시청,순천경찰서,Y,2,6,2021-03-15,4820000,전라남도 순천시,전라남도
초등학교,향림초등학교,전라남도 순천시 석현북길 21,전남 순천시 석현동 525-13,34.97363693,127.474053,전라남도 순천시청,순천경찰서,Y,6,9,2021-03-15,4820000,전라남도 순천시,전라남도
초등학교,풍덕초등학교,전라남도 순천시 팔마1길 9-10,전남 순천시 연향동 1661,34.93360933,127.5125207,전라남도 순천시청,순천경찰서,Y,7,7,2021-03-15,4820000,전라남도 순천시,전라남도
초등학교,중앙초등학교,전라남도 순천시 팔마1길 9-10,전남 순천시 연향동 1661,34.93360933,127.5125207,전라남도 순천시청,순천경찰서,Y,2,9,2021-03-15,4820000,전라남도 순천시,전라남도
초등학교,남산초등학교,전라남도 순천시 풍덕새길 89(풍덕동),전남 순천시 풍덕동 1102-18,34.93854586,127.4953678,전라남도 순천시청,순천경찰서,Y,2,9,2021-03-15,4820000,전라남도 순천시,전라남도
초등학교,인안초등학교,전라남도 순천시 순천만길 950,전남 순천시 인월동 142,34.89047815,127.4806694,전라남도 순천시청,순천경찰서,Y,2,9,2021-03-15,4820000,전라남도 순천시,전라남도
초등학교,도사초등학교,전라남도 순천시 순천만길 166,전남 순천시 홍내동 637-3,34.9138432,127.5002293,전라남도 순천시청,순천경찰서,Y,2,9,2021-03-15,4820000,전라남도 순천시,전라남도
초등학교,상사초등학교,전라남도 순천시 상사면 상사초등길 55,전남 순천시 상사면 응령리 287,34.94379076,127.4453773,전라남도 순천시청,순천경찰서,Y,2,9,2021-03-15,4820000,전라남도 순천시,전라남도
초등학교,승주초등학교,전라남도 순천시 승주읍 승주로 639,전남 순천시 승주읍 서평리 546-1,35.01722239,127.380163,전라남도 순천시청,순천경찰서,Y,4,9,2021-03-15,4820000,전라남도 순천시,전라남도
초등학교,승주초등학교 죽학분교,전라남도 순천시 승주읍 선암사길 280,전남 순천시 승주읍 죽학리 71-4,34.99101391,127.3625215,전라남도 순천시청,순천경찰서,Y,2,9,2021-03-15,4820000,전라남도 순천시,전라남도
초등학교,창촌초등학교,전라남도 순천시 주암면 창동주암길 3,전남 순천시 주암면 창촌리 275,35.06040641,127.2772953,전라남도 순천시청,순천경찰서,Y,2,8,2021-03-15,4820000,전라남도 순천시,전라남도
초등학교,외서초등학교,전라남도 순천시 외서면 반월로 6,전남 순천시 외서면 월암리 161-11,34.91607038,127.2739419,전라남도 순천시청,순천경찰서,Y,4,5,2021-03-15,4820000,전라남도 순천시,전라남도
어린이집,정다운어린이집,경기도 파주시 엘씨디로241번길 30 엘씨디로241번길36,경기도 파주시 탄현면 금승리 11-66,37.810157,126.756911,경기도파주시,파주경찰서,Y,2,10,2021-06-22,4060000,경기도 파주시,경기도
초등학교,연향초등학교,전라남도 순천시 연향번영길 11,전남 순천시 연향동 1388,34.94370189,127.5169682,전라남도 순천시청,순천경찰서,Y,4,9,2021-03-15,4820000,전라남도 순천시,전라남도
초등학교,용당초등학교,전라남도 순천시 용당초등길 33-10,전남 순천시 용당동 607-1,34.9755712,127.4899531,전라남도 순천시청,순천경찰서,Y,7,9,2021-03-15,4820000,전라남도 순천시,전라남도
유치원,버클리명문유치원,부산광역시 사상구 백양대로342번길 16 (주례동),부산 사상구 주례동 3-16,35.15557788,129.0136484,부산광역시 사상구청,사상경찰서,Y,1,,2021-06-15,3390000,부산광역시 사상구,부산광역시
어린이집,아진어린이집,부산광역시 사상구 냉정로 78 (주례동),부산 사상구 주례동 92-191,35.14905235,129.0085091,부산광역시 사상구청,사상경찰서,Y,1,,2021-06-15,3390000,부산광역시 사상구,부산광역시
유치원,벧엘유치원,부산광역시 사상구 백양대로902번길 42 (모라동),부산 사상구 모라동 439-4,35.1872871,128.9926857,부산광역시 사상구청,사상경찰서,Y,1,,2021-06-15,3390000,부산광역시 사상구,부산광역시
유치원,"한빛유치원(구, 새한빛어린이집)",부산광역시 사상구 엄궁중로 20 (엄궁동),부산 사상구 엄궁동 214-2,35.1264434,128.9706313,부산광역시 사상구청,사상경찰서,Y,1,,2021-06-15,3390000,부산광역시 사상구,부산광역시
유치원,은하유치원,부산광역시 사상구 엄궁북로4번안길 78 (엄궁동),부산 사상구 엄궁동 124,35.1261531,128.9741179,부산광역시 사상구청,사상경찰서,Y,3,,2021-06-15,3390000,부산광역시 사상구,부산광역시
유치원,한울유치원,부산광역시 사상구 대동로107번길 17 (학장동),부산 사상구 학장동 585-8,35.13974183,128.9791501,부산광역시 사상구청,사상경찰서,Y,3,,2021-06-15,3390000,부산광역시 사상구,부산광역시
어린이집,청솔어린이집,부산광역시 사상구 대동로107번길 9-3 (학장동),부산 사상구 학장동 585-88,35.13941081,128.9788711,부산광역시 사상구청,사상경찰서,Y,3,,2021-06-15,3390000,부산광역시 사상구,부산광역시
유치원,부산유치원,부산광역시 사상구 대동로 110-13 (학장동),부산 사상구 학장동 574-82,35.13871031,128.9802672,부산광역시 사상구청,사상경찰서,Y,3,,2021-06-15,3390000,부산광역시 사상구,부산광역시
유치원,노아유치원,부산광역시 사상구 대동로159번길 73 (학장동),부산 사상구 학장동 578-2,35.1406152,128.9799207,부산광역시 사상구청,사상경찰서,Y,3,,2021-06-15,3390000,부산광역시 사상구,부산광역시
유치원,반도보라유치원,부산광역시 사상구 대동로 98 (학장동),부산 사상구 학장동 573-1,35.1373614,128.9803952,부산광역시 사상구청,사상경찰서,Y,3,,2021-06-15,3390000,부산광역시 사상구,부산광역시
어린이집,엄궁한빛어린이집,부산광역시 사상구 엄궁남로 17 (엄궁동),부산 사상구 엄궁동 166-4,35.1255406,128.9698875,부산광역시 사상구청,사상경찰서,Y,2,,2021-06-15,3390000,부산광역시 사상구,부산광역시
어린이집,주례고운어린이집,부산광역시 사상구 동주로 2-11 (주례동),부산 사상구 주례동 1233-23,35.14779902,128.9990649,부산광역시 사상구청,사상경찰서,Y,2,,2021-06-15,3390000,부산광역시 사상구,부산광역시
어린이집,한솔어린이집,부산광역시 사상구 모덕로 82 (덕포동),부산 사상구 덕포동 247-6,35.18091206,128.9852421,부산광역시 사상구청,사상경찰서,Y,1,,2021-06-15,3390000,부산광역시 사상구,부산광역시
유치원,성광유치원,부산광역시 사상구 새벽시장로63번길 57 (감전동),부산 사상구 감전동 123-12,35.15761936,128.9810064,부산광역시 사상구청,사상경찰서,Y,2,,2021-06-15,3390000,부산광역시 사상구,부산광역시
초등학교,사상초등학교,부산광역시 사상구 운산로 65 (덕포동),부산 사상구 덕포동 692-1,35.1679998,128.9828363,부산광역시 사상구청,사상경찰서,Y,5,,2021-06-15,3390000,부산광역시 사상구,부산광역시
유치원,사상초등학교병설유치원,부산광역시 사상구 운산로 65 (덕포동),부산 사상구 덕포동 692-1,35.16838733,128.9828348,부산광역시 사상구청,사상경찰서,Y,5,,2021-06-15,3390000,부산광역시 사상구,부산광역시
어린이집,부산근로복지공단어린이집,부산광역시 사상구 사상로 255 (괘법동),부산 사상구 괘법동 516-42,35.1674319,128.9816774,부산광역시 사상구청,사상경찰서,Y,5,,2021-06-15,3390000,부산광역시 사상구,부산광역시
초등학교,괘법초등학교,부산광역시 사상구 사상로161번길 8 (괘법동),부산 사상구 괘법동 556-2,35.16007508,128.9860677,부산광역시 사상구청,사상경찰서,Y,4,,2021-06-15,3390000,부산광역시 사상구,부산광역시
초등학교,창진초등학교,부산광역시 사상구 사상로223번길 100 (괘법동),부산 사상구 괘법동 519-2,35.16605536,128.9778864,부산광역시 사상구청,사상경찰서,Y,2,,2021-06-15,3390000,부산광역시 사상구,부산광역시
유치원,괘법한신유치원,부산광역시 사상구 낙동대로1210번길 33 (괘법동),부산 사상구 괘법동 516-3,35.16797093,128.9784305,부산광역시 사상구청,사상경찰서,Y,2,,2021-06-15,3390000,부산광역시 사상구,부산광역시
초등학교,감전초등학교,부산광역시 사상구 괘감로 132 (감전동),부산 사상구 감전동 119-6,35.15618521,128.9883433,부산광역시 사상구청,사상경찰서,Y,3,,2021-06-15,3390000,부산광역시 사상구,부산광역시
유치원,감전초등학교병설유치원,부산광역시 사상구 괘감로 132 (감전동),부산 사상구 감전동 119-6,35.15620305,128.9883547,부산광역시 사상구청,사상경찰서,Y,3,,2021-06-15,3390000,부산광역시 사상구,부산광역시
초등학교,서감초등학교,부산광역시 사상구 괘감로 64 (감전동),부산 사상구 감전동 122-1,35.1578108,128.9820842,부산광역시 사상구청,사상경찰서,Y,2,,2021-06-15,3390000,부산광역시 사상구,부산광역시
유치원,서감초등학교병설유치원,부산광역시 사상구 괘감로 64 (감전동),부산 사상구 감전동 122-1,35.15783782,128.9820849,부산광역시 사상구청,사상경찰서,Y,2,,2021-06-15,3390000,부산광역시 사상구,부산광역시
유치원,감전샛별유치원,부산광역시 사상구 괘감로 77(괘법동),부산 사상구 괘법동 580-16,35.1586848,128.9832326,부산광역시 사상구청,사상경찰서,Y,2,,2021-06-15,3390000,부산광역시 사상구,부산광역시
어린이집,성광어린이집,부산광역시 사상구 새벽시장로63번길 57 (감전동),부산 사상구 감전동 123-12,35.15761936,128.9810064,부산광역시 사상구청,사상경찰서,Y,2,,2021-06-15,3390000,부산광역시 사상구,부산광역시
초등학교,주학초등학교,부산광역시 사상구 가야대로366번길 120 (주례동),부산 사상구 주례동 84-192,35.1459826,129.0125671,부산광역시 사상구청,사상경찰서,Y,2,,2021-06-15,3390000,부산광역시 사상구,부산광역시
초등학교,엄궁초등학교,부산광역시 사상구 엄궁로191번길 23 (엄궁동),부산 사상구 엄궁동 47,35.1291981,128.9743982,부산광역시 사상구청,사상경찰서,Y,6,,2021-06-15,3390000,부산광역시 사상구,부산광역시
유치원,가람유치원,부산광역시 사상구 엄궁로191번길 20 (엄궁동),부산 사상구 엄궁동 50-6,35.1291437,128.9734755,부산광역시 사상구청,사상경찰서,Y,6,,2021-06-15,3390000,부산광역시 사상구,부산광역시
초등학교,학진초등학교,부산광역시 사상구 대동로 34-16 (엄궁동),부산 사상구 엄궁동 25-21,35.133048,128.9751453,부산광역시 사상구청,사상경찰서,Y,1,,2021-06-15,3390000,부산광역시 사상구,부산광역시
초등학교,동궁초등학교,부산광역시 사상구 엄궁로 70-7 (엄궁동),부산 사상구 엄궁동 680-4,35.12346124,128.9748128,부산광역시 사상구청,사상경찰서,Y,1,,2021-06-15,3390000,부산광역시 사상구,부산광역시
유치원,엄궁한신유치원,부산광역시 사상구 엄궁로 40 (엄궁동),부산 사상구 엄궁동 683-3,35.12338847,128.9718386,부산광역시 사상구청,사상경찰서,Y,1,,2021-06-15,3390000,부산광역시 사상구,부산광역시
유치원,엄궁제일유치원,부산광역시 사상구 엄궁로 119 (엄궁동),부산 사상구 엄궁동 677-1,35.1262195,128.9770668,부산광역시 사상구청,사상경찰서,Y,1,,2021-06-15,3390000,부산광역시 사상구,부산광역시
초등학교,학장초등학교,부산광역시 사상구 대동로 205 (학장동),부산 사상구 학장동 242-1,35.14619209,128.9837526,부산광역시 사상구청,사상경찰서,Y,1,,2021-06-15,3390000,부산광역시 사상구,부산광역시
초등학교,구학초등학교,부산광역시 사상구 학감대로 49 (학장동),부산 사상구 학장동 168-15,35.13752694,128.9926944,부산광역시 사상구청,사상경찰서,Y,2,,2021-06-15,3390000,부산광역시 사상구,부산광역시
유치원,제일유치원,부산광역시 사상구 학감대로49번길 28-7 (학장동),부산 사상구 학장동 168-12,35.1369017,128.9921913,부산광역시 사상구청,사상경찰서,Y,2,,2021-06-15,3390000,부산광역시 사상구,부산광역시
유치원,사랑유치원,부산광역시 사상구 학감대로49번길 73 (학장동),부산 사상구 학장동 167-6,35.13499189,128.993135,부산광역시 사상구청,사상경찰서,Y,2,,2021-06-15,3390000,부산광역시 사상구,부산광역시
초등학교,동주초등학교,부산광역시 사상구 가야대로306번길 72 (주례동),부산 사상구 주례동 531,35.14713311,129.0055483,부산광역시 사상구청,사상경찰서,Y,4,,2021-06-15,3390000,부산광역시 사상구,부산광역시
유치원,동성럭키유치원,부산광역시 사상구 주례로 114 (주례동),부산 사상구 주례동 595-5,35.1465353,129.0040737,부산광역시 사상구청,사상경찰서,Y,4,,2021-06-15,3390000,부산광역시 사상구,부산광역시
초등학교,주양초등학교,부산광역시 사상구 백양대로 372-6 (주례동),부산 사상구 주례동 10-1,35.15368152,129.0121068,부산광역시 사상구청,사상경찰서,Y,1,,2021-06-15,3390000,부산광역시 사상구,부산광역시
초등학교,주감초등학교,부산광역시 사상구 양지로 48 (주례동),부산 사상구 주례동 319,35.15376368,129.0009056,부산광역시 사상구청,사상경찰서,Y,2,,2021-06-15,3390000,부산광역시 사상구,부산광역시
특수학교,솔빛학교,부산광역시 사상구 삼덕로5번길 171 (삼락동),부산 사상구 삼락동 365-8,35.18174307,128.9787134,부산광역시 사상구청,사상경찰서,Y,1,,2021-06-15,3390000,부산광역시 사상구,부산광역시
유치원,경남정보대부속유치원,부산광역시 사상구 주례로 57 (주례동),부산 사상구 주례동 166-220,35.1463089,129.0096154,부산광역시 사상구청,사상경찰서,Y,1,,2021-06-15,3390000,부산광역시 사상구,부산광역시
유치원,리라유치원,부산광역시 사상구 낙동대로 778-9 (엄궁동),부산 사상구 엄궁동 509,35.1299219,128.9721871,부산광역시 사상구청,사상경찰서,Y,1,,2021-06-15,3390000,부산광역시 사상구,부산광역시
유치원,명성유치원,부산광역시 사상구 학장로216번길 3 (학장동),부산 사상구 학장동 203-6,35.1438885,128.9902714,부산광역시 사상구청,사상경찰서,Y,2,,2021-06-15,3390000,부산광역시 사상구,부산광역시
유치원,무덕유치원,부산광역시 사상구 냉정로 78 (주례동),부산 사상구 주례동 92-191,35.14905235,129.0085091,부산광역시 사상구청,사상경찰서,Y,2,,2021-06-15,3390000,부산광역시 사상구,부산광역시
초등학교,삼덕초등학교,부산광역시 사상구 삼덕로 24 (삼락동),부산 사상구 삼락동 409-17,35.17405068,128.9787358,부산광역시 사상구청,사상경찰서,Y,3,,2021-06-15,3390000,부산광역시 사상구,부산광역시
유치원,삼덕초등학교병설유치원,부산광역시 사상구 삼덕로 24 (삼락동),부산 사상구 삼락동 409-17,35.17410428,128.9787646,부산광역시 사상구청,사상경찰서,Y,3,,2021-06-15,3390000,부산광역시 사상구,부산광역시
초등학교,모라초등학교,부산광역시 사상구 모라로64번길 46 (모라동),부산 사상구 모라동 655-3,35.19042782,128.9857195,부산광역시 사상구청,사상경찰서,Y,2,,2021-06-15,3390000,부산광역시 사상구,부산광역시
초등학교,모덕초등학교,부산광역시 사상구 덕상로 120 (모라동),부산 사상구 모라동 1364-1,35.18261882,128.9915007,부산광역시 사상구청,사상경찰서,Y,1,,2021-06-15,3390000,부산광역시 사상구,부산광역시
유치원,모덕초등학교병설유치원,부산광역시 사상구 덕상로 120 (모라동),부산 사상구 모라동 1364-1,35.18261882,128.9915007,부산광역시 사상구청,사상경찰서,Y,1,,2021-06-15,3390000,부산광역시 사상구,부산광역시
유치원,모덕유치원,부산광역시 사상구 덕상로 85 (덕포동),부산 사상구 덕포동 761-1,35.17907248,128.9892673,부산광역시 사상구청,사상경찰서,Y,1,,2021-06-15,3390000,부산광역시 사상구,부산광역시
유치원,"초록유치원(구,동백유치원)",부산광역시 사상구 백양대로 880 (모라동),부산 사상구 모라동 1362,35.18311269,128.9912801,부산광역시 사상구청,사상경찰서,Y,1,,2021-06-15,3390000,부산광역시 사상구,부산광역시
